{"type":"FeatureCollection","features":[{"type":"Feature","properties":{"location_code":"K001","location_name":"P.S. 001 The Bergen","nta":"BK32","nta_name":"Sunset Park West","category":"Elementary","fiscal_year":"2020"},"geometry":{"type":"Point","coordinates":[-74.01142,40.648959]}},{"type":"Feature","properties":{"location_code":"K002","location_name":"Parkside Preparatory Academy","nta":"BK60","nta_name":"Prospect Lefferts Gardens-Wingate","category":"Junior High-Intermediate-Middle","fiscal_year":"2020"},"geometry":{"type":"Point","coordinates":[-73.951575,40.656423]}},{"type":"Feature","properties":{"location_code":"K003","location_name":"P.S. 003 The Bedford Village","nta":"BK69","nta_name":"Clinton Hill","category":"Elementary","fiscal_year":"2020"},"geometry":{"type":"Point","coordinates":[-73.955219,40.682311]}},{"type":"Feature","properties":{"location_code":"K004","location_name":"P.S. K004","nta":"BK82","nta_name":"East New York","category":"Elementary","fiscal_year":"2020"},"geometry":{"type":"Point","coordinates":[-73.879276,40.6585]}},{"type":"Feature","properties":{"location_code":"K005","location_name":"P.S. 005 Dr. Ronald McNair","nta":"BK35","nta_name":"Stuyvesant Heights","category":"Elementary","fiscal_year":"2020"},"geometry":{"type":"Point","coordinates":[-73.92197,40.685241]}},{"type":"Feature","properties":{"location_code":"K006","location_name":"Norma Adams Clemons Academy","nta":"BK95","nta_name":"Erasmus","category":"Elementary","fiscal_year":"2020"},"geometry":{"type":"Point","coordinates":[-73.956279,40.648973]}},{"type":"Feature","properties":{"location_code":"K007","location_name":"P.S. 007 Abraham Lincoln","nta":"BK83","nta_name":"Cypress Hills-City Line","category":"Elementary","fiscal_year":"2020"},"geometry":{"type":"Point","coordinates":[-73.872983,40.689213]}},{"type":"Feature","properties":{"location_code":"K008","location_name":"P.S. 008 Robert Fulton","nta":"BK09","nta_name":"Brooklyn Heights-Cobble Hill","category":"K-8","fiscal_year":"2020"},"geometry":{"type":"Point","coordinates":[-73.992841,40.700709]}},{"type":"Feature","properties":{"location_code":"K009","location_name":"P.S. 009 Teunis G. Bergen","nta":"BK64","nta_name":"Prospect Heights","category":"Elementary","fiscal_year":"2020"},"geometry":{"type":"Point","coordinates":[-73.966333,40.678554]}},{"type":"Feature","properties":{"location_code":"K010","location_name":"Magnet School of Math, Science and Design Technolo","nta":"BK37","nta_name":"Park Slope-Gowanus","category":"Elementary","fiscal_year":"2020"},"geometry":{"type":"Point","coordinates":[-73.985946,40.660912]}},{"type":"Feature","properties":{"location_code":"K011","location_name":"P.S. 011 Purvis J. Behan","nta":"BK69","nta_name":"Clinton Hill","category":"Elementary","fiscal_year":"2020"},"geometry":{"type":"Point","coordinates":[-73.96589,40.685896]}},{"type":"Feature","properties":{"location_code":"K012","location_name":"Dr. Jacqueline Peek-Davis School","nta":"BK79","nta_name":"Ocean Hill","category":"Elementary","fiscal_year":"2020"},"geometry":{"type":"Point","coordinates":[-73.920095,40.673124]}},{"type":"Feature","properties":{"location_code":"K013","location_name":"P.S. 013 Roberto Clemente","nta":"BK85","nta_name":"East New York (Pennsylvania Ave)","category":"Elementary","fiscal_year":"2020"},"geometry":{"type":"Point","coordinates":[-73.893328,40.664067]}},{"type":"Feature","properties":{"location_code":"K014","location_name":"J.H.S. 014 Shell Bank","nta":"BK17","nta_name":"Sheepshead Bay-Gerritsen Beach-Manhattan Beach","category":"Junior High-Intermediate-Middle","fiscal_year":"2020"},"geometry":{"type":"Point","coordinates":[-73.938107,40.593232]}},{"type":"Feature","properties":{"location_code":"K015","location_name":"P.S. 015 Patrick F. Daly","nta":"BK33","nta_name":"Carroll Gardens-Columbia Street-Red Hook","category":"Elementary","fiscal_year":"2020"},"geometry":{"type":"Point","coordinates":[-74.011864,40.677085]}},{"type":"Feature","properties":{"location_code":"K016","location_name":"P.S. 016 Leonard Dunkly","nta":"BK72","nta_name":"Williamsburg","category":"Elementary","fiscal_year":"2020"},"geometry":{"type":"Point","coordinates":[-73.962049,40.706069]}},{"type":"Feature","properties":{"location_code":"K017","location_name":"P.S. 017 Henry D. Woodworth","nta":"BK73","nta_name":"North Side-South Side","category":"Elementary","fiscal_year":"2020"},"geometry":{"type":"Point","coordinates":[-73.9573,40.715268]}},{"type":"Feature","properties":{"location_code":"K018","location_name":"P.S. 018 Edward Bush","nta":"BK90","nta_name":"East Williamsburg","category":"Elementary","fiscal_year":"2020"},"geometry":{"type":"Point","coordinates":[-73.946695,40.71088]}},{"type":"Feature","properties":{"location_code":"K020","location_name":"P.S. 020 Clinton Hill","nta":"BK68","nta_name":"Fort Greene","category":"Elementary","fiscal_year":"2020"},"geometry":{"type":"Point","coordinates":[-73.970896,40.690742]}},{"type":"Feature","properties":{"location_code":"K021","location_name":"P.S. 021 Crispus Attucks","nta":"BK61","nta_name":"Crown Heights North","category":"Elementary","fiscal_year":"2020"},"geometry":{"type":"Point","coordinates":[-73.926673,40.68035]}},{"type":"Feature","properties":{"location_code":"K023","location_name":"P.S. 023 Carter G. Woodson","nta":"BK75","nta_name":"Bedford","category":"Elementary","fiscal_year":"2020"},"geometry":{"type":"Point","coordinates":[-73.947256,40.69447]}},{"type":"Feature","properties":{"location_code":"K024","location_name":"P.S. 024","nta":"BK32","nta_name":"Sunset Park West","category":"Elementary","fiscal_year":"2020"},"geometry":{"type":"Point","coordinates":[-74.004533,40.652832]}},{"type":"Feature","properties":{"location_code":"K025","location_name":"P.S. 025 Eubie Blake School","nta":"BK35","nta_name":"Stuyvesant Heights","category":"Elementary","fiscal_year":"2020"},"geometry":{"type":"Point","coordinates":[-73.940749,40.691472]}},{"type":"Feature","properties":{"location_code":"K026","location_name":"P.S. 026 Jesse Owens","nta":"BK35","nta_name":"Stuyvesant Heights","category":"Elementary","fiscal_year":"2020"},"geometry":{"type":"Point","coordinates":[-73.9317,40.6921]}},{"type":"Feature","properties":{"location_code":"K028","location_name":"P.S. 028 The Warren Prep Academy","nta":"BK35","nta_name":"Stuyvesant Heights","category":"Elementary","fiscal_year":"2020"},"geometry":{"type":"Point","coordinates":[-73.921099,40.680239]}},{"type":"Feature","properties":{"location_code":"K029","location_name":"P.S. 029 John M. Harrigan","nta":"BK33","nta_name":"Carroll Gardens-Columbia Street-Red Hook","category":"Elementary","fiscal_year":"2020"},"geometry":{"type":"Point","coordinates":[-73.997447,40.686843]}},{"type":"Feature","properties":{"location_code":"K030","location_name":"P.S./I.S. 30 Mary White Ovington","nta":"BK31","nta_name":"Bay Ridge","category":"K-8","fiscal_year":"2020"},"geometry":{"type":"Point","coordinates":[-74.02395,40.633598]}},{"type":"Feature","properties":{"location_code":"K031","location_name":"P.S. 031 Samuel F. Dupont","nta":"BK76","nta_name":"Greenpoint","category":"Elementary","fiscal_year":"2020"},"geometry":{"type":"Point","coordinates":[-73.954139,40.72697]}},{"type":"Feature","properties":{"location_code":"K032","location_name":"P.S. 032 Samuel Mills Sprole","nta":"BK33","nta_name":"Carroll Gardens-Columbia Street-Red Hook","category":"Elementary","fiscal_year":"2020"},"geometry":{"type":"Point","coordinates":[-73.991141,40.680159]}},{"type":"Feature","properties":{"location_code":"K034","location_name":"P.S. 034 Oliver H. Perry","nta":"BK76","nta_name":"Greenpoint","category":"Elementary","fiscal_year":"2020"},"geometry":{"type":"Point","coordinates":[-73.949756,40.726378]}},{"type":"Feature","properties":{"location_code":"K035","location_name":"M.S. 035 Stephen Decatur","nta":"BK35","nta_name":"Stuyvesant Heights","category":"Junior High-Intermediate-Middle","fiscal_year":"2020"},"geometry":{"type":"Point","coordinates":[-73.935891,40.681528]}},{"type":"Feature","properties":{"location_code":"K036","location_name":"P.S. 36","nta":"BK82","nta_name":"East New York","category":"K-12 all grades","fiscal_year":"2020"},"geometry":{"type":"Point","coordinates":[-73.887195,40.660465]}},{"type":"Feature","properties":{"location_code":"K037","location_name":"Beginning with Children Charter School II","nta":"BK72","nta_name":"Williamsburg","category":"K-8","fiscal_year":"2020"},"geometry":{"type":"Point","coordinates":[-73.953304,40.703996]}},{"type":"Feature","properties":{"location_code":"K038","location_name":"P.S. 038 The Pacific","nta":"BK38","nta_name":"DUMBO-Vinegar Hill-Downtown Brooklyn-Boerum Hill","category":"Elementary","fiscal_year":"2020"},"geometry":{"type":"Point","coordinates":[-73.982826,40.684945]}},{"type":"Feature","properties":{"location_code":"K039","location_name":"P.S. 039 Henry Bristow","nta":"BK37","nta_name":"Park Slope-Gowanus","category":"Elementary","fiscal_year":"2020"},"geometry":{"type":"Point","coordinates":[-73.982909,40.668644]}},{"type":"Feature","properties":{"location_code":"K040","location_name":"P.S. 040 George W. Carver","nta":"BK35","nta_name":"Stuyvesant Heights","category":"Elementary","fiscal_year":"2020"},"geometry":{"type":"Point","coordinates":[-73.921099,40.680239]}},{"type":"Feature","properties":{"location_code":"K041","location_name":"P.S. 041 Francis White","nta":"BK81","nta_name":"Brownsville","category":"K-8","fiscal_year":"2020"},"geometry":{"type":"Point","coordinates":[-73.906925,40.660455]}},{"type":"Feature","properties":{"location_code":"K044","location_name":"P.S. 044 Marcus Garvey","nta":"BK35","nta_name":"Stuyvesant Heights","category":"Elementary","fiscal_year":"2020"},"geometry":{"type":"Point","coordinates":[-73.940859,40.686213]}},{"type":"Feature","properties":{"location_code":"K045","location_name":"P.S./I.S. 045 Horace E. Greene","nta":"BK78","nta_name":"Bushwick South","category":"K-8","fiscal_year":"2020"},"geometry":{"type":"Point","coordinates":[-73.91043,40.686424]}},{"type":"Feature","properties":{"location_code":"K046","location_name":"P.S. 046 Edward C. Blum","nta":"BK68","nta_name":"Fort Greene","category":"Elementary","fiscal_year":"2020"},"geometry":{"type":"Point","coordinates":[-73.971644,40.69453]}},{"type":"Feature","properties":{"location_code":"K048","location_name":"P.S. 048 Mapleton","nta":"BK88","nta_name":"Borough Park","category":"Elementary","fiscal_year":"2020"},"geometry":{"type":"Point","coordinates":[-73.987165,40.621481]}},{"type":"Feature","properties":{"location_code":"K050","location_name":"J.H.S. 050 John D. Wells","nta":"BK73","nta_name":"North Side-South Side","category":"Junior High-Intermediate-Middle","fiscal_year":"2020"},"geometry":{"type":"Point","coordinates":[-73.960137,40.711915]}},{"type":"Feature","properties":{"location_code":"K051","location_name":"M.S. 51 William Alexander","nta":"BK37","nta_name":"Park Slope-Gowanus","category":"Junior High-Intermediate-Middle","fiscal_year":"2020"},"geometry":{"type":"Point","coordinates":[-73.98505,40.672358]}},{"type":"Feature","properties":{"location_code":"K052","location_name":"P.S. 052 Sheepshead Bay","nta":"BK17","nta_name":"Sheepshead Bay-Gerritsen Beach-Manhattan Beach","category":"Elementary","fiscal_year":"2020"},"geometry":{"type":"Point","coordinates":[-73.940135,40.588372]}},{"type":"Feature","properties":{"location_code":"K053","location_name":"P.S. K053","nta":"BK32","nta_name":"Sunset Park West","category":"K-12 all grades","fiscal_year":"2020"},"geometry":{"type":"Point","coordinates":[-73.988743,40.660805]}},{"type":"Feature","properties":{"location_code":"K054","location_name":"P.S. 054 Samuel C. Barnes","nta":"BK75","nta_name":"Bedford","category":"Elementary","fiscal_year":"2020"},"geometry":{"type":"Point","coordinates":[-73.952504,40.692616]}},{"type":"Feature","properties":{"location_code":"K056","location_name":"P.S. 056 Lewis H. Latimer","nta":"BK69","nta_name":"Clinton Hill","category":"Elementary","fiscal_year":"2020"},"geometry":{"type":"Point","coordinates":[-73.960536,40.684286]}},{"type":"Feature","properties":{"location_code":"K057","location_name":"Whitelaw Reid Academy of Arts and Business","nta":"BK35","nta_name":"Stuyvesant Heights","category":"Junior High-Intermediate-Middle","fiscal_year":"2020"},"geometry":{"type":"Point","coordinates":[-73.932254,40.691467]}},{"type":"Feature","properties":{"location_code":"K058","location_name":"P.S. 058 The Carroll","nta":"BK33","nta_name":"Carroll Gardens-Columbia Street-Red Hook","category":"Elementary","fiscal_year":"2020"},"geometry":{"type":"Point","coordinates":[-73.995486,40.680379]}},{"type":"Feature","properties":{"location_code":"K059","location_name":"P.S. 059 William Floyd","nta":"BK35","nta_name":"Stuyvesant Heights","category":"Elementary","fiscal_year":"2020"},"geometry":{"type":"Point","coordinates":[-73.943279,40.697619]}},{"type":"Feature","properties":{"location_code":"K061","location_name":"M.S. 061 Dr. Gladstone H. Atwell","nta":"BK60","nta_name":"Prospect Lefferts Gardens-Wingate","category":"Junior High-Intermediate-Middle","fiscal_year":"2020"},"geometry":{"type":"Point","coordinates":[-73.949198,40.663605]}},{"type":"Feature","properties":{"location_code":"K062","location_name":"J.H.S. 062 Ditmas","nta":"BK41","nta_name":"Kensington-Ocean Parkway","category":"Junior High-Intermediate-Middle","fiscal_year":"2020"},"geometry":{"type":"Point","coordinates":[-73.971153,40.638087]}},{"type":"Feature","properties":{"location_code":"K065","location_name":"P.S. 065","nta":"BK83","nta_name":"Cypress Hills-City Line","category":"Elementary","fiscal_year":"2020"},"geometry":{"type":"Point","coordinates":[-73.878353,40.686534]}},{"type":"Feature","properties":{"location_code":"K066","location_name":"P.S. 66","nta":"BK50","nta_name":"Canarsie","category":"K-8","fiscal_year":"2020"},"geometry":{"type":"Point","coordinates":[-73.907064,40.648749]}},{"type":"Feature","properties":{"location_code":"K067","location_name":"P.S. 067 Charles A. Dorsey","nta":"BK68","nta_name":"Fort Greene","category":"Elementary","fiscal_year":"2020"},"geometry":{"type":"Point","coordinates":[-73.977674,40.695339]}},{"type":"Feature","properties":{"location_code":"K068","location_name":"I.S. 068 Isaac Bildersee","nta":"BK50","nta_name":"Canarsie","category":"Junior High-Intermediate-Middle","fiscal_year":"2020"},"geometry":{"type":"Point","coordinates":[-73.911215,40.635388]}},{"type":"Feature","properties":{"location_code":"K069","location_name":"P.S. 69 Vincent D. Grippo School","nta":"BK34","nta_name":"Sunset Park East","category":"Elementary","fiscal_year":"2020"},"geometry":{"type":"Point","coordinates":[-74.009752,40.632392]}},{"type":"Feature","properties":{"location_code":"K071","location_name":"Juan Morel Campos Secondary School","nta":"BK72","nta_name":"Williamsburg","category":"Secondary School","fiscal_year":"2020"},"geometry":{"type":"Point","coordinates":[-73.953304,40.703996]}},{"type":"Feature","properties":{"location_code":"K075","location_name":"P.S. 075 Mayda Cortiella","nta":"BK78","nta_name":"Bushwick South","category":"Elementary","fiscal_year":"2020"},"geometry":{"type":"Point","coordinates":[-73.921336,40.693261]}},{"type":"Feature","properties":{"location_code":"K077","location_name":"P.S. K077","nta":"BK37","nta_name":"Park Slope-Gowanus","category":"K-12 all grades","fiscal_year":"2020"},"geometry":{"type":"Point","coordinates":[-73.976648,40.678809]}},{"type":"Feature","properties":{"location_code":"K078","location_name":"J.H.S. 078 Roy H. Mann","nta":"BK45","nta_name":"Georgetown-Marine Park-Bergen Beach-Mill Basin","category":"Junior High-Intermediate-Middle","fiscal_year":"2020"},"geometry":{"type":"Point","coordinates":[-73.912914,40.620537]}},{"type":"Feature","properties":{"location_code":"K081","location_name":"P.S. 081 Thaddeus Stevens","nta":"BK35","nta_name":"Stuyvesant Heights","category":"Elementary","fiscal_year":"2020"},"geometry":{"type":"Point","coordinates":[-73.935123,40.692866]}},{"type":"Feature","properties":{"location_code":"K084","location_name":"P.S. 084 Jose De Diego","nta":"BK73","nta_name":"North Side-South Side","category":"K-8","fiscal_year":"2020"},"geometry":{"type":"Point","coordinates":[-73.963808,40.715089]}},{"type":"Feature","properties":{"location_code":"K086","location_name":"P.S. 086 The Irvington","nta":"BK77","nta_name":"Bushwick North","category":"Elementary","fiscal_year":"2020"},"geometry":{"type":"Point","coordinates":[-73.917804,40.700595]}},{"type":"Feature","properties":{"location_code":"K088","location_name":"J.H.S. 088 Peter Rouget","nta":"BK32","nta_name":"Sunset Park West","category":"Junior High-Intermediate-Middle","fiscal_year":"2020"},"geometry":{"type":"Point","coordinates":[-73.988743,40.660805]}},{"type":"Feature","properties":{"location_code":"K089","location_name":"P.S. 089 Cypress Hills","nta":"BK82","nta_name":"East New York","category":"K-8","fiscal_year":"2020"},"geometry":{"type":"Point","coordinates":[-73.886712,40.677707]}},{"type":"Feature","properties":{"location_code":"K090","location_name":"P.S. 90 Edna Cohen School","nta":"BK23","nta_name":"West Brighton","category":"Elementary","fiscal_year":"2020"},"geometry":{"type":"Point","coordinates":[-73.980387,40.578192]}},{"type":"Feature","properties":{"location_code":"K091","location_name":"P.S. 091 The Albany Avenue School","nta":"BK60","nta_name":"Prospect Lefferts Gardens-Wingate","category":"Elementary","fiscal_year":"2020"},"geometry":{"type":"Point","coordinates":[-73.940707,40.661806]}},{"type":"Feature","properties":{"location_code":"K092","location_name":"P.S. 092 Adrian Hegeman","nta":"BK60","nta_name":"Prospect Lefferts Gardens-Wingate","category":"Elementary","fiscal_year":"2020"},"geometry":{"type":"Point","coordinates":[-73.95381,40.656276]}},{"type":"Feature","properties":{"location_code":"K093","location_name":"P.S. 093 William H. Prescott","nta":"BK61","nta_name":"Crown Heights North","category":"Elementary","fiscal_year":"2020"},"geometry":{"type":"Point","coordinates":[-73.946381,40.679079]}},{"type":"Feature","properties":{"location_code":"K094","location_name":"P.S. 094 The Henry Longfellow","nta":"BK34","nta_name":"Sunset Park East","category":"Elementary","fiscal_year":"2020"},"geometry":{"type":"Point","coordinates":[-74.008795,40.64373]}},{"type":"Feature","properties":{"location_code":"K095","location_name":"P.S. 095 The Gravesend","nta":"BK26","nta_name":"Gravesend","category":"K-8","fiscal_year":"2020"},"geometry":{"type":"Point","coordinates":[-73.974664,40.595996]}},{"type":"Feature","properties":{"location_code":"K096","location_name":"I.S. 096 Seth Low","nta":"BK29","nta_name":"Bensonhurst East","category":"Junior High-Intermediate-Middle","fiscal_year":"2020"},"geometry":{"type":"Point","coordinates":[-73.984985,40.608135]}},{"type":"Feature","properties":{"location_code":"K097","location_name":"P.S. 97 The Highlawn","nta":"BK29","nta_name":"Bensonhurst East","category":"Elementary","fiscal_year":"2020"},"geometry":{"type":"Point","coordinates":[-73.98557,40.601191]}},{"type":"Feature","properties":{"location_code":"K098","location_name":"I.S. 98 Bay Academy","nta":"BK17","nta_name":"Sheepshead Bay-Gerritsen Beach-Manhattan Beach","category":"Junior High-Intermediate-Middle","fiscal_year":"2020"},"geometry":{"type":"Point","coordinates":[-73.954047,40.583893]}},{"type":"Feature","properties":{"location_code":"K099","location_name":"P.S. 099 Isaac Asimov","nta":"BK46","nta_name":"Ocean Parkway South","category":"K-8","fiscal_year":"2020"},"geometry":{"type":"Point","coordinates":[-73.966031,40.621474]}},{"type":"Feature","properties":{"location_code":"K100","location_name":"P.S. 100 The Coney Island School","nta":"BK23","nta_name":"West Brighton","category":"Elementary","fiscal_year":"2020"},"geometry":{"type":"Point","coordinates":[-73.97083,40.577591]}},{"type":"Feature","properties":{"location_code":"K101","location_name":"P.S. 101 The Verrazano","nta":"BK29","nta_name":"Bensonhurst East","category":"Elementary","fiscal_year":"2020"},"geometry":{"type":"Point","coordinates":[-73.991962,40.597379]}},{"type":"Feature","properties":{"location_code":"K102","location_name":"P.S. 102 The Bayview","nta":"BK31","nta_name":"Bay Ridge","category":"Elementary","fiscal_year":"2020"},"geometry":{"type":"Point","coordinates":[-74.028758,40.634318]}},{"type":"Feature","properties":{"location_code":"K104","location_name":"P.S./I.S. 104 The Fort Hamilton School","nta":"BK31","nta_name":"Bay Ridge","category":"K-8","fiscal_year":"2020"},"geometry":{"type":"Point","coordinates":[-74.028492,40.618077]}},{"type":"Feature","properties":{"location_code":"K105","location_name":"P.S. 105 The Blythebourne","nta":"BK88","nta_name":"Borough Park","category":"Elementary","fiscal_year":"2020"},"geometry":{"type":"Point","coordinates":[-74.003635,40.63332]}},{"type":"Feature","properties":{"location_code":"K106","location_name":"P.S. 106 Edward Everett Hale","nta":"BK78","nta_name":"Bushwick South","category":"Elementary","fiscal_year":"2020"},"geometry":{"type":"Point","coordinates":[-73.913378,40.693318]}},{"type":"Feature","properties":{"location_code":"K107","location_name":"P.S. 107 John W. Kimball","nta":"BK37","nta_name":"Park Slope-Gowanus","category":"Elementary","fiscal_year":"2020"},"geometry":{"type":"Point","coordinates":[-73.981181,40.662945]}},{"type":"Feature","properties":{"location_code":"K108","location_name":"P.S. 108 Sal Abbracciamento","nta":"BK83","nta_name":"Cypress Hills-City Line","category":"Elementary","fiscal_year":"2020"},"geometry":{"type":"Point","coordinates":[-73.884348,40.681295]}},{"type":"Feature","properties":{"location_code":"K109","location_name":"P.S. 109","nta":"BK91","nta_name":"East Flatbush-Farragut","category":"K-8","fiscal_year":"2020"},"geometry":{"type":"Point","coordinates":[-73.933099,40.635842]}},{"type":"Feature","properties":{"location_code":"K110","location_name":"P.S. 110 The Monitor","nta":"BK76","nta_name":"Greenpoint","category":"Elementary","fiscal_year":"2020"},"geometry":{"type":"Point","coordinates":[-73.941926,40.723743]}},{"type":"Feature","properties":{"location_code":"K112","location_name":"P.S. 112 Lefferts Park","nta":"BK28","nta_name":"Bensonhurst West","category":"Elementary","fiscal_year":"2020"},"geometry":{"type":"Point","coordinates":[-74.000565,40.619417]}},{"type":"Feature","properties":{"location_code":"K113","location_name":"M.S. 113 Ronald Edmonds Learning Center","nta":"BK68","nta_name":"Fort Greene","category":"Junior High-Intermediate-Middle","fiscal_year":"2020"},"geometry":{"type":"Point","coordinates":[-73.971474,40.688769]}},{"type":"Feature","properties":{"location_code":"K114","location_name":"P.S. 114 Ryder Elementary","nta":"BK50","nta_name":"Canarsie","category":"Elementary","fiscal_year":"2020"},"geometry":{"type":"Point","coordinates":[-73.90788,40.642684]}},{"type":"Feature","properties":{"location_code":"K115","location_name":"P.S. 115 Daniel Mucatel School","nta":"BK50","nta_name":"Canarsie","category":"Elementary","fiscal_year":"2020"},"geometry":{"type":"Point","coordinates":[-73.897896,40.634861]}},{"type":"Feature","properties":{"location_code":"K116","location_name":"P.S. 116 Elizabeth L Farrell","nta":"BK77","nta_name":"Bushwick North","category":"Elementary","fiscal_year":"2020"},"geometry":{"type":"Point","coordinates":[-73.916563,40.698077]}},{"type":"Feature","properties":{"location_code":"K118","location_name":"The Maurice Sendak Community School","nta":"BK37","nta_name":"Park Slope-Gowanus","category":"Elementary","fiscal_year":"2020"},"geometry":{"type":"Point","coordinates":[-73.987602,40.671145]}},{"type":"Feature","properties":{"location_code":"K119","location_name":"P.S. 119 Amersfort","nta":"BK58","nta_name":"Flatlands","category":"Elementary","fiscal_year":"2020"},"geometry":{"type":"Point","coordinates":[-73.938733,40.626038]}},{"type":"Feature","properties":{"location_code":"K120","location_name":"P.S. 120 Carlos Tapia","nta":"BK78","nta_name":"Bushwick South","category":"Elementary","fiscal_year":"2020"},"geometry":{"type":"Point","coordinates":[-73.937888,40.700819]}},{"type":"Feature","properties":{"location_code":"K121","location_name":"P.S. 121 Nelson A. Rockefeller","nta":"BK88","nta_name":"Borough Park","category":"K-8","fiscal_year":"2020"},"geometry":{"type":"Point","coordinates":[-73.978472,40.622671]}},{"type":"Feature","properties":{"location_code":"K122","location_name":"Pathways in Technology Early College High School (","nta":"BK61","nta_name":"Crown Heights North","category":"High school","fiscal_year":"2020"},"geometry":{"type":"Point","coordinates":[-73.939282,40.675905]}},{"type":"Feature","properties":{"location_code":"K123","location_name":"P.S. 123 Suydam","nta":"BK77","nta_name":"Bushwick North","category":"Elementary","fiscal_year":"2020"},"geometry":{"type":"Point","coordinates":[-73.922388,40.704076]}},{"type":"Feature","properties":{"location_code":"K124","location_name":"P.S. 124 Silas B. Dutcher","nta":"BK37","nta_name":"Park Slope-Gowanus","category":"Elementary","fiscal_year":"2020"},"geometry":{"type":"Point","coordinates":[-73.99062,40.667464]}},{"type":"Feature","properties":{"location_code":"K125","location_name":"Success Academy Charter School - Bed-Stuy 2","nta":"BK35","nta_name":"Stuyvesant Heights","category":"Elementary","fiscal_year":"2020"},"geometry":{"type":"Point","coordinates":[-73.943279,40.697619]}},{"type":"Feature","properties":{"location_code":"K126","location_name":"John Ericsson Middle School 126","nta":"BK76","nta_name":"Greenpoint","category":"Junior High-Intermediate-Middle","fiscal_year":"2020"},"geometry":{"type":"Point","coordinates":[-73.947932,40.719818]}},{"type":"Feature","properties":{"location_code":"K127","location_name":"P.S. 127 Mckinley Park","nta":"BK30","nta_name":"Dyker Heights","category":"Elementary","fiscal_year":"2020"},"geometry":{"type":"Point","coordinates":[-74.018429,40.623687]}},{"type":"Feature","properties":{"location_code":"K128","location_name":"P.S. 128 Bensonhurst","nta":"BK28","nta_name":"Bensonhurst West","category":"Elementary","fiscal_year":"2020"},"geometry":{"type":"Point","coordinates":[-73.995084,40.60498]}},{"type":"Feature","properties":{"location_code":"K129","location_name":"Success Academy Charter School - Cobble Hill","nta":"BK38","nta_name":"DUMBO-Vinegar Hill-Downtown Brooklyn-Boerum Hill","category":"K-8","fiscal_year":"2020"},"geometry":{"type":"Point","coordinates":[-73.993293,40.685006]}},{"type":"Feature","properties":{"location_code":"K130","location_name":"P.S. 130 The Parkside","nta":"BK40","nta_name":"Windsor Terrace","category":"Elementary","fiscal_year":"2020"},"geometry":{"type":"Point","coordinates":[-73.976053,40.648924]}},{"type":"Feature","properties":{"location_code":"K131","location_name":"P.S. 131 Brooklyn","nta":"BK88","nta_name":"Borough Park","category":"Elementary","fiscal_year":"2020"},"geometry":{"type":"Point","coordinates":[-73.993247,40.640728]}},{"type":"Feature","properties":{"location_code":"K132","location_name":"P.S. 132 The Conselyea School","nta":"BK90","nta_name":"East Williamsburg","category":"Elementary","fiscal_year":"2020"},"geometry":{"type":"Point","coordinates":[-73.945663,40.714772]}},{"type":"Feature","properties":{"location_code":"K133","location_name":"P.S. 133 William A. Butler","nta":"BK37","nta_name":"Park Slope-Gowanus","category":"Elementary","fiscal_year":"2020"},"geometry":{"type":"Point","coordinates":[-73.980455,40.679916]}},{"type":"Feature","properties":{"location_code":"K134","location_name":"P.S. K134","nta":"BK42","nta_name":"Flatbush","category":"Elementary","fiscal_year":"2020"},"geometry":{"type":"Point","coordinates":[-73.97318,40.632145]}},{"type":"Feature","properties":{"location_code":"K135","location_name":"P.S. 135 Sheldon A. Brookner","nta":"BK91","nta_name":"East Flatbush-Farragut","category":"Elementary","fiscal_year":"2020"},"geometry":{"type":"Point","coordinates":[-73.932949,40.653093]}},{"type":"Feature","properties":{"location_code":"K136","location_name":"I.S. 136 Charles O. Dewey","nta":"BK32","nta_name":"Sunset Park West","category":"Junior High-Intermediate-Middle","fiscal_year":"2020"},"geometry":{"type":"Point","coordinates":[-74.007596,40.652127]}},{"type":"Feature","properties":{"location_code":"K137","location_name":"P.S./I.S. 137 Rachel Jean Mitchell","nta":"BK79","nta_name":"Ocean Hill","category":"Elementary","fiscal_year":"2020"},"geometry":{"type":"Point","coordinates":[-73.916641,40.682248]}},{"type":"Feature","properties":{"location_code":"K138","location_name":"P.S. 138 Brooklyn","nta":"BK61","nta_name":"Crown Heights North","category":"K-8","fiscal_year":"2020"},"geometry":{"type":"Point","coordinates":[-73.951559,40.673943]}},{"type":"Feature","properties":{"location_code":"K139","location_name":"P.S. 139 Alexine A. Fenty","nta":"BK42","nta_name":"Flatbush","category":"Elementary","fiscal_year":"2020"},"geometry":{"type":"Point","coordinates":[-73.965862,40.64134]}},{"type":"Feature","properties":{"location_code":"K140","location_name":"P.S. K140","nta":"BK75","nta_name":"Bedford","category":"K-8","fiscal_year":"2020"},"geometry":{"type":"Point","coordinates":[-73.9456,40.68192]}},{"type":"Feature","properties":{"location_code":"K141","location_name":"P.S. K141","nta":"BK60","nta_name":"Prospect Lefferts Gardens-Wingate","category":"K-12 all grades","fiscal_year":"2020"},"geometry":{"type":"Point","coordinates":[-73.951575,40.656423]}},{"type":"Feature","properties":{"location_code":"K145","location_name":"P.S. 145 Andrew Jackson","nta":"BK78","nta_name":"Bushwick South","category":"Elementary","fiscal_year":"2020"},"geometry":{"type":"Point","coordinates":[-73.932388,40.701107]}},{"type":"Feature","properties":{"location_code":"K146","location_name":"The Brooklyn New School, P.S. 146","nta":"BK33","nta_name":"Carroll Gardens-Columbia Street-Red Hook","category":"Elementary","fiscal_year":"2020"},"geometry":{"type":"Point","coordinates":[-74.002022,40.679462]}},{"type":"Feature","properties":{"location_code":"K147","location_name":"P.S. 147 Isaac Remsen","nta":"BK78","nta_name":"Bushwick South","category":"Elementary","fiscal_year":"2020"},"geometry":{"type":"Point","coordinates":[-73.93879,40.705005]}},{"type":"Feature","properties":{"location_code":"K149","location_name":"P.S. 149 Danny Kaye","nta":"BK85","nta_name":"East New York (Pennsylvania Ave)","category":"Elementary","fiscal_year":"2020"},"geometry":{"type":"Point","coordinates":[-73.89276,40.669361]}},{"type":"Feature","properties":{"location_code":"K150","location_name":"P.S. 150 Christopher","nta":"BK81","nta_name":"Brownsville","category":"Elementary","fiscal_year":"2020"},"geometry":{"type":"Point","coordinates":[-73.90514,40.668768]}},{"type":"Feature","properties":{"location_code":"K151","location_name":"P.S. 151 Lyndon B. Johnson","nta":"BK77","nta_name":"Bushwick North","category":"Elementary","fiscal_year":"2020"},"geometry":{"type":"Point","coordinates":[-73.908242,40.693432]}},{"type":"Feature","properties":{"location_code":"K152","location_name":"School of Science & Technology","nta":"BK42","nta_name":"Flatbush","category":"Elementary","fiscal_year":"2020"},"geometry":{"type":"Point","coordinates":[-73.954269,40.632619]}},{"type":"Feature","properties":{"location_code":"K153","location_name":"P.S. 153 Homecrest","nta":"BK25","nta_name":"Homecrest","category":"Elementary","fiscal_year":"2020"},"geometry":{"type":"Point","coordinates":[-73.960027,40.601179]}},{"type":"Feature","properties":{"location_code":"K154","location_name":"The Windsor Terrace School","nta":"BK40","nta_name":"Windsor Terrace","category":"Elementary","fiscal_year":"2020"},"geometry":{"type":"Point","coordinates":[-73.975967,40.657002]}},{"type":"Feature","properties":{"location_code":"K155","location_name":"P.S./ I.S. 155 Nicholas Herkimer","nta":"BK79","nta_name":"Ocean Hill","category":"K-8","fiscal_year":"2020"},"geometry":{"type":"Point","coordinates":[-73.908682,40.677634]}},{"type":"Feature","properties":{"location_code":"K156","location_name":"P.S. 156 Waverly","nta":"BK81","nta_name":"Brownsville","category":"Elementary","fiscal_year":"2020"},"geometry":{"type":"Point","coordinates":[-73.91788,40.665553]}},{"type":"Feature","properties":{"location_code":"K157","location_name":"P.S./I.S. 157 The Benjamin Franklin Health & Scien","nta":"BK75","nta_name":"Bedford","category":"K-8","fiscal_year":"2020"},"geometry":{"type":"Point","coordinates":[-73.959999,40.695397]}},{"type":"Feature","properties":{"location_code":"K158","location_name":"P.S. 158 Warwick","nta":"BK82","nta_name":"East New York","category":"Elementary","fiscal_year":"2020"},"geometry":{"type":"Point","coordinates":[-73.885214,40.67259]}},{"type":"Feature","properties":{"location_code":"K159","location_name":"P.S. 159 Isaac Pitkin","nta":"BK82","nta_name":"East New York","category":"Elementary","fiscal_year":"2020"},"geometry":{"type":"Point","coordinates":[-73.869705,40.676111]}},{"type":"Feature","properties":{"location_code":"K160","location_name":"P.S. 160 William T. Sampson","nta":"BK88","nta_name":"Borough Park","category":"Elementary","fiscal_year":"2020"},"geometry":{"type":"Point","coordinates":[-73.999045,40.636932]}},{"type":"Feature","properties":{"location_code":"K161","location_name":"P.S. 161 The Crown","nta":"BK63","nta_name":"Crown Heights South","category":"Elementary","fiscal_year":"2020"},"geometry":{"type":"Point","coordinates":[-73.949243,40.665757]}},{"type":"Feature","properties":{"location_code":"K162","location_name":"J.H.S. 162 The Willoughby","nta":"BK77","nta_name":"Bushwick North","category":"Junior High-Intermediate-Middle","fiscal_year":"2020"},"geometry":{"type":"Point","coordinates":[-73.919643,40.706816]}},{"type":"Feature","properties":{"location_code":"K163","location_name":"P.S. 163 Bath Beach","nta":"BK27","nta_name":"Bath Beach","category":"K-8","fiscal_year":"2020"},"geometry":{"type":"Point","coordinates":[-74.007469,40.606739]}},{"type":"Feature","properties":{"location_code":"K164","location_name":"P.S. 164 Caesar Rodney","nta":"BK88","nta_name":"Borough Park","category":"Elementary","fiscal_year":"2020"},"geometry":{"type":"Point","coordinates":[-73.985739,40.637101]}},{"type":"Feature","properties":{"location_code":"K165","location_name":"P.S. 165 Ida Posner","nta":"BK81","nta_name":"Brownsville","category":"Elementary","fiscal_year":"2020"},"geometry":{"type":"Point","coordinates":[-73.910938,40.657061]}},{"type":"Feature","properties":{"location_code":"K168","location_name":"The Brooklyn School for Math and Research","nta":"BK77","nta_name":"Bushwick North","category":"High school","fiscal_year":"2020"},"geometry":{"type":"Point","coordinates":[-73.911751,40.696457]}},{"type":"Feature","properties":{"location_code":"K169","location_name":"P.S. 169 Sunset Park","nta":"BK34","nta_name":"Sunset Park East","category":"Elementary","fiscal_year":"2020"},"geometry":{"type":"Point","coordinates":[-74.0017,40.645825]}},{"type":"Feature","properties":{"location_code":"K170","location_name":"Ralph A. Fabrizio School","nta":"BK31","nta_name":"Bay Ridge","category":"Elementary","fiscal_year":"2020"},"geometry":{"type":"Point","coordinates":[-74.018719,40.630373]}},{"type":"Feature","properties":{"location_code":"K171","location_name":"I.S. 171 Abraham Lincoln","nta":"BK83","nta_name":"Cypress Hills-City Line","category":"Junior High-Intermediate-Middle","fiscal_year":"2020"},"geometry":{"type":"Point","coordinates":[-73.869434,40.685852]}},{"type":"Feature","properties":{"location_code":"K172","location_name":"P.S. 172 Beacon School of Excellence","nta":"BK32","nta_name":"Sunset Park West","category":"Elementary","fiscal_year":"2020"},"geometry":{"type":"Point","coordinates":[-74.000191,40.657682]}},{"type":"Feature","properties":{"location_code":"K176","location_name":"P.S. 176 Ovington","nta":"BK30","nta_name":"Dyker Heights","category":"Elementary","fiscal_year":"2020"},"geometry":{"type":"Point","coordinates":[-74.005205,40.624835]}},{"type":"Feature","properties":{"location_code":"K177","location_name":"P.S. 177 The Marlboro","nta":"BK29","nta_name":"Bensonhurst East","category":"Elementary","fiscal_year":"2020"},"geometry":{"type":"Point","coordinates":[-73.974425,40.608169]}},{"type":"Feature","properties":{"location_code":"K178","location_name":"P.S. 178 Saint Clair Mckelway","nta":"BK79","nta_name":"Ocean Hill","category":"K-8","fiscal_year":"2020"},"geometry":{"type":"Point","coordinates":[-73.915337,40.67538]}},{"type":"Feature","properties":{"location_code":"K179","location_name":"P.S. 179 Kensington","nta":"BK41","nta_name":"Kensington-Ocean Parkway","category":"Elementary","fiscal_year":"2020"},"geometry":{"type":"Point","coordinates":[-73.97726,40.640127]}},{"type":"Feature","properties":{"location_code":"K180","location_name":"The SEEALL Academy","nta":"BK88","nta_name":"Borough Park","category":"K-8","fiscal_year":"2020"},"geometry":{"type":"Point","coordinates":[-73.98925,40.626454]}},{"type":"Feature","properties":{"location_code":"K181","location_name":"P.S. 181 Brooklyn","nta":"BK91","nta_name":"East Flatbush-Farragut","category":"K-8","fiscal_year":"2020"},"geometry":{"type":"Point","coordinates":[-73.945883,40.648217]}},{"type":"Feature","properties":{"location_code":"K182","location_name":"Success Academy Charter School - Williamsburg","nta":"BK73","nta_name":"North Side-South Side","category":"Elementary","fiscal_year":"2020"},"geometry":{"type":"Point","coordinates":[-73.960137,40.711915]}},{"type":"Feature","properties":{"location_code":"K184","location_name":"P.S. 184 Newport","nta":"BK81","nta_name":"Brownsville","category":"K-8","fiscal_year":"2020"},"geometry":{"type":"Point","coordinates":[-73.905004,40.660385]}},{"type":"Feature","properties":{"location_code":"K185","location_name":"P.S. 185 Walter Kassenbrock","nta":"BK31","nta_name":"Bay Ridge","category":"Elementary","fiscal_year":"2020"},"geometry":{"type":"Point","coordinates":[-74.033429,40.623598]}},{"type":"Feature","properties":{"location_code":"K186","location_name":"P.S. 186 Dr. Irving A Gladstone","nta":"BK28","nta_name":"Bensonhurst West","category":"Elementary","fiscal_year":"2020"},"geometry":{"type":"Point","coordinates":[-73.994258,40.610917]}},{"type":"Feature","properties":{"location_code":"K187","location_name":"The Christa McAuliffe School\\I.S. 187","nta":"BK30","nta_name":"Dyker Heights","category":"Junior High-Intermediate-Middle","fiscal_year":"2020"},"geometry":{"type":"Point","coordinates":[-74.003883,40.627929]}},{"type":"Feature","properties":{"location_code":"K188","location_name":"P.S. 188 Michael E. Berdy","nta":"BK21","nta_name":"Seagate-Coney Island","category":"Elementary","fiscal_year":"2020"},"geometry":{"type":"Point","coordinates":[-74.000489,40.576733]}},{"type":"Feature","properties":{"location_code":"K189","location_name":"P.S. 189 The Bilingual Center","nta":"BK81","nta_name":"Brownsville","category":"K-8","fiscal_year":"2020"},"geometry":{"type":"Point","coordinates":[-73.925435,40.665228]}},{"type":"Feature","properties":{"location_code":"K190","location_name":"P.S. 190 Sheffield","nta":"BK85","nta_name":"East New York (Pennsylvania Ave)","category":"Elementary","fiscal_year":"2020"},"geometry":{"type":"Point","coordinates":[-73.894877,40.662243]}},{"type":"Feature","properties":{"location_code":"K191","location_name":"P.S. 191 Paul Robeson","nta":"BK61","nta_name":"Crown Heights North","category":"Elementary","fiscal_year":"2020"},"geometry":{"type":"Point","coordinates":[-73.924127,40.67173]}},{"type":"Feature","properties":{"location_code":"K192","location_name":"P.S. 192 - The Magnet School for Math and Science","nta":"BK88","nta_name":"Borough Park","category":"K-8","fiscal_year":"2020"},"geometry":{"type":"Point","coordinates":[-73.97954,40.6288]}},{"type":"Feature","properties":{"location_code":"K193","location_name":"P.S. 193 Gil Hodges","nta":"BK43","nta_name":"Midwood","category":"Elementary","fiscal_year":"2020"},"geometry":{"type":"Point","coordinates":[-73.950321,40.62208]}},{"type":"Feature","properties":{"location_code":"K194","location_name":"P.S. 194 Raoul Wallenberg","nta":"BK17","nta_name":"Sheepshead Bay-Gerritsen Beach-Manhattan Beach","category":"Elementary","fiscal_year":"2020"},"geometry":{"type":"Point","coordinates":[-73.934163,40.598069]}},{"type":"Feature","properties":{"location_code":"K195","location_name":"P.S. 195 Manhattan Beach","nta":"BK17","nta_name":"Sheepshead Bay-Gerritsen Beach-Manhattan Beach","category":"Elementary","fiscal_year":"2020"},"geometry":{"type":"Point","coordinates":[-73.943498,40.580161]}},{"type":"Feature","properties":{"location_code":"K196","location_name":"P.S. 196 Ten Eyck","nta":"BK78","nta_name":"Bushwick South","category":"Elementary","fiscal_year":"2020"},"geometry":{"type":"Point","coordinates":[-73.939385,40.708804]}},{"type":"Feature","properties":{"location_code":"K197","location_name":"P.S. 197 - The Kings Highway Academy","nta":"BK43","nta_name":"Midwood","category":"Elementary","fiscal_year":"2020"},"geometry":{"type":"Point","coordinates":[-73.951398,40.612339]}},{"type":"Feature","properties":{"location_code":"K198","location_name":"P.S. 198 Brooklyn","nta":"BK91","nta_name":"East Flatbush-Farragut","category":"Elementary","fiscal_year":"2020"},"geometry":{"type":"Point","coordinates":[-73.937083,40.637601]}},{"type":"Feature","properties":{"location_code":"K199","location_name":"P.S. 199 Frederick Wachtel","nta":"BK43","nta_name":"Midwood","category":"Elementary","fiscal_year":"2020"},"geometry":{"type":"Point","coordinates":[-73.963026,40.61631]}},{"type":"Feature","properties":{"location_code":"K200","location_name":"P.S. 200 Benson School","nta":"BK27","nta_name":"Bath Beach","category":"Elementary","fiscal_year":"2020"},"geometry":{"type":"Point","coordinates":[-74.001915,40.602809]}},{"type":"Feature","properties":{"location_code":"K201","location_name":"J.H.S. 201 The Dyker Heights","nta":"BK30","nta_name":"Dyker Heights","category":"Junior High-Intermediate-Middle","fiscal_year":"2020"},"geometry":{"type":"Point","coordinates":[-74.013749,40.619043]}},{"type":"Feature","properties":{"location_code":"K202","location_name":"P.S. 202 Ernest S. Jenkyns","nta":"BK82","nta_name":"East New York","category":"Elementary","fiscal_year":"2020"},"geometry":{"type":"Point","coordinates":[-73.876084,40.665817]}},{"type":"Feature","properties":{"location_code":"K203","location_name":"P.S. 203 Floyd Bennett School","nta":"BK58","nta_name":"Flatlands","category":"Elementary","fiscal_year":"2020"},"geometry":{"type":"Point","coordinates":[-73.925732,40.622108]}},{"type":"Feature","properties":{"location_code":"K204","location_name":"P.S. 204 Vince Lombardi","nta":"BK28","nta_name":"Bensonhurst West","category":"Elementary","fiscal_year":"2020"},"geometry":{"type":"Point","coordinates":[-74.006137,40.613535]}},{"type":"Feature","properties":{"location_code":"K205","location_name":"P.S. 205 Clarion","nta":"BK28","nta_name":"Bensonhurst West","category":"Elementary","fiscal_year":"2020"},"geometry":{"type":"Point","coordinates":[-73.986792,40.614737]}},{"type":"Feature","properties":{"location_code":"K206","location_name":"P.S. 206 Joseph F Lamb","nta":"BK17","nta_name":"Sheepshead Bay-Gerritsen Beach-Manhattan Beach","category":"K-8","fiscal_year":"2020"},"geometry":{"type":"Point","coordinates":[-73.948453,40.596876]}},{"type":"Feature","properties":{"location_code":"K207","location_name":"P.S. 207 Elizabeth G. Leary","nta":"BK45","nta_name":"Georgetown-Marine Park-Bergen Beach-Mill Basin","category":"K-8","fiscal_year":"2020"},"geometry":{"type":"Point","coordinates":[-73.930485,40.613981]}},{"type":"Feature","properties":{"location_code":"K208","location_name":"P.S. 208 Elsa Ebeling","nta":"BK91","nta_name":"East Flatbush-Farragut","category":"Elementary","fiscal_year":"2020"},"geometry":{"type":"Point","coordinates":[-73.930898,40.6427]}},{"type":"Feature","properties":{"location_code":"K209","location_name":"P.S. 209 Margaret Mead","nta":"BK19","nta_name":"Brighton Beach","category":"K-8","fiscal_year":"2020"},"geometry":{"type":"Point","coordinates":[-73.961191,40.5868]}},{"type":"Feature","properties":{"location_code":"K211","location_name":"I.S. 211 John Wilson","nta":"BK50","nta_name":"Canarsie","category":"Junior High-Intermediate-Middle","fiscal_year":"2020"},"geometry":{"type":"Point","coordinates":[-73.895224,40.642931]}},{"type":"Feature","properties":{"location_code":"K212","location_name":"P.S. 212 Lady Deborah Moody","nta":"BK26","nta_name":"Gravesend","category":"Elementary","fiscal_year":"2020"},"geometry":{"type":"Point","coordinates":[-73.985368,40.587612]}},{"type":"Feature","properties":{"location_code":"K213","location_name":"P.S. 213 New Lots","nta":"BK82","nta_name":"East New York","category":"Elementary","fiscal_year":"2020"},"geometry":{"type":"Point","coordinates":[-73.889968,40.659845]}},{"type":"Feature","properties":{"location_code":"K214","location_name":"P.S. 214 Michael Friedsam","nta":"BK83","nta_name":"Cypress Hills-City Line","category":"Elementary","fiscal_year":"2020"},"geometry":{"type":"Point","coordinates":[-73.862961,40.675881]}},{"type":"Feature","properties":{"location_code":"K215","location_name":"P.S. 215 Morris H. Weiss","nta":"BK25","nta_name":"Homecrest","category":"Elementary","fiscal_year":"2020"},"geometry":{"type":"Point","coordinates":[-73.970171,40.602722]}},{"type":"Feature","properties":{"location_code":"K216","location_name":"P.S. 216 Arturo Toscanini","nta":"BK26","nta_name":"Gravesend","category":"Elementary","fiscal_year":"2020"},"geometry":{"type":"Point","coordinates":[-73.969647,40.59]}},{"type":"Feature","properties":{"location_code":"K217","location_name":"P.S. 217 Colonel David Marcus School","nta":"BK42","nta_name":"Flatbush","category":"Elementary","fiscal_year":"2020"},"geometry":{"type":"Point","coordinates":[-73.966442,40.633482]}},{"type":"Feature","properties":{"location_code":"K218","location_name":"J.H.S. 218 James P. Sinnott","nta":"BK82","nta_name":"East New York","category":"Junior High-Intermediate-Middle","fiscal_year":"2020"},"geometry":{"type":"Point","coordinates":[-73.874537,40.67002]}},{"type":"Feature","properties":{"location_code":"K219","location_name":"P.S. 219 Kennedy-King","nta":"BK96","nta_name":"Rugby-Remsen Village","category":"Elementary","fiscal_year":"2020"},"geometry":{"type":"Point","coordinates":[-73.922296,40.658834]}},{"type":"Feature","properties":{"location_code":"K220","location_name":"J.H.S. 220 John J. Pershing","nta":"BK34","nta_name":"Sunset Park East","category":"Junior High-Intermediate-Middle","fiscal_year":"2020"},"geometry":{"type":"Point","coordinates":[-74.00125,40.640997]}},{"type":"Feature","properties":{"location_code":"K221","location_name":"P.S. 221 Toussaint L'Ouverture","nta":"BK63","nta_name":"Crown Heights South","category":"Elementary","fiscal_year":"2020"},"geometry":{"type":"Point","coordinates":[-73.935753,40.663964]}},{"type":"Feature","properties":{"location_code":"K222","location_name":"P.S. 222 Katherine R. Snyder","nta":"BK45","nta_name":"Georgetown-Marine Park-Bergen Beach-Mill Basin","category":"Elementary","fiscal_year":"2020"},"geometry":{"type":"Point","coordinates":[-73.939205,40.614005]}},{"type":"Feature","properties":{"location_code":"K223","location_name":"J.H.S. 223 The Montauk","nta":"BK88","nta_name":"Borough Park","category":"Junior High-Intermediate-Middle","fiscal_year":"2020"},"geometry":{"type":"Point","coordinates":[-73.982424,40.6351]}},{"type":"Feature","properties":{"location_code":"K224","location_name":"P.S. 224 Hale A. Woodruff","nta":"BK82","nta_name":"East New York","category":"Elementary","fiscal_year":"2020"},"geometry":{"type":"Point","coordinates":[-73.866542,40.664143]}},{"type":"Feature","properties":{"location_code":"K225","location_name":"P.S. K225 - The Eileen E. Zaglin","nta":"BK19","nta_name":"Brighton Beach","category":"K-8","fiscal_year":"2020"},"geometry":{"type":"Point","coordinates":[-73.955856,40.58026]}},{"type":"Feature","properties":{"location_code":"K226","location_name":"P.S. 226 Alfred De B. Mason","nta":"BK88","nta_name":"Borough Park","category":"K-8","fiscal_year":"2020"},"geometry":{"type":"Point","coordinates":[-73.977099,40.615405]}},{"type":"Feature","properties":{"location_code":"K227","location_name":"J.H.S. 227 Edward B. Shallow","nta":"BK28","nta_name":"Bensonhurst West","category":"Junior High-Intermediate-Middle","fiscal_year":"2020"},"geometry":{"type":"Point","coordinates":[-73.995961,40.622102]}},{"type":"Feature","properties":{"location_code":"K228","location_name":"I.S. 228 David A. Boody","nta":"BK29","nta_name":"Bensonhurst East","category":"Junior High-Intermediate-Middle","fiscal_year":"2020"},"geometry":{"type":"Point","coordinates":[-73.976801,40.60066]}},{"type":"Feature","properties":{"location_code":"K229","location_name":"P.S. 229 Dyker","nta":"BK27","nta_name":"Bath Beach","category":"K-8","fiscal_year":"2020"},"geometry":{"type":"Point","coordinates":[-74.013585,40.610331]}},{"type":"Feature","properties":{"location_code":"K230","location_name":"P.S. 230 Doris L. Cohen","nta":"BK41","nta_name":"Kensington-Ocean Parkway","category":"Elementary","fiscal_year":"2020"},"geometry":{"type":"Point","coordinates":[-73.980515,40.645609]}},{"type":"Feature","properties":{"location_code":"K231","location_name":"P.S. K231","nta":"BK88","nta_name":"Borough Park","category":"K-8","fiscal_year":"2020"},"geometry":{"type":"Point","coordinates":[-73.98925,40.626454]}},{"type":"Feature","properties":{"location_code":"K233","location_name":"P.S. 233 Langston Hughes","nta":"BK96","nta_name":"Rugby-Remsen Village","category":"Elementary","fiscal_year":"2020"},"geometry":{"type":"Point","coordinates":[-73.914282,40.651642]}},{"type":"Feature","properties":{"location_code":"K234","location_name":"J.H.S. 234 Arthur W. Cunningham","nta":"BK44","nta_name":"Madison","category":"Junior High-Intermediate-Middle","fiscal_year":"2020"},"geometry":{"type":"Point","coordinates":[-73.955217,40.604447]}},{"type":"Feature","properties":{"location_code":"K235","location_name":"P.S. 235 Janice Marie Knight School","nta":"BK91","nta_name":"East Flatbush-Farragut","category":"K-8","fiscal_year":"2020"},"geometry":{"type":"Point","coordinates":[-73.940922,40.655337]}},{"type":"Feature","properties":{"location_code":"K236","location_name":"P.S. 236 Mill Basin","nta":"BK45","nta_name":"Georgetown-Marine Park-Bergen Beach-Mill Basin","category":"Elementary","fiscal_year":"2020"},"geometry":{"type":"Point","coordinates":[-73.912005,40.615494]}},{"type":"Feature","properties":{"location_code":"K238","location_name":"P.S. 238 Anne Sullivan","nta":"BK25","nta_name":"Homecrest","category":"K-8","fiscal_year":"2020"},"geometry":{"type":"Point","coordinates":[-73.964586,40.608801]}},{"type":"Feature","properties":{"location_code":"K239","location_name":"Mark Twain I.S. 239 for the Gifted & Talented","nta":"BK21","nta_name":"Seagate-Coney Island","category":"Junior High-Intermediate-Middle","fiscal_year":"2020"},"geometry":{"type":"Point","coordinates":[-73.992447,40.57864]}},{"type":"Feature","properties":{"location_code":"K240","location_name":"Andries Hudde","nta":"BK43","nta_name":"Midwood","category":"Junior High-Intermediate-Middle","fiscal_year":"2020"},"geometry":{"type":"Point","coordinates":[-73.946836,40.623788]}},{"type":"Feature","properties":{"location_code":"K241","location_name":"P.S. 241 Emma L. Johnston","nta":"BK63","nta_name":"Crown Heights South","category":"Elementary","fiscal_year":"2020"},"geometry":{"type":"Point","coordinates":[-73.960924,40.668913]}},{"type":"Feature","properties":{"location_code":"K243","location_name":"P.S. 243K- The Weeksville School","nta":"BK61","nta_name":"Crown Heights North","category":"Elementary","fiscal_year":"2020"},"geometry":{"type":"Point","coordinates":[-73.935093,40.675675]}},{"type":"Feature","properties":{"location_code":"K244","location_name":"P.S. 244 Richard R. Green","nta":"BK96","nta_name":"Rugby-Remsen Village","category":"Elementary","fiscal_year":"2020"},"geometry":{"type":"Point","coordinates":[-73.925592,40.647851]}},{"type":"Feature","properties":{"location_code":"K245","location_name":"P.S. 245","nta":"BK42","nta_name":"Flatbush","category":"Elementary","fiscal_year":"2020"},"geometry":{"type":"Point","coordinates":[-73.962743,40.644927]}},{"type":"Feature","properties":{"location_code":"K246","location_name":"M.S. 246 Walt Whitman","nta":"BK95","nta_name":"Erasmus","category":"Junior High-Intermediate-Middle","fiscal_year":"2020"},"geometry":{"type":"Point","coordinates":[-73.95348,40.648352]}},{"type":"Feature","properties":{"location_code":"K247","location_name":"P.S. 247 Brooklyn","nta":"BK28","nta_name":"Bensonhurst West","category":"Elementary","fiscal_year":"2020"},"geometry":{"type":"Point","coordinates":[-73.987195,40.612247]}},{"type":"Feature","properties":{"location_code":"K249","location_name":"P.S. 249 The Caton","nta":"BK42","nta_name":"Flatbush","category":"Elementary","fiscal_year":"2020"},"geometry":{"type":"Point","coordinates":[-73.966456,40.649509]}},{"type":"Feature","properties":{"location_code":"K250","location_name":"P.S. 250 George H. Lindsay","nta":"BK90","nta_name":"East Williamsburg","category":"Elementary","fiscal_year":"2020"},"geometry":{"type":"Point","coordinates":[-73.945659,40.706708]}},{"type":"Feature","properties":{"location_code":"K251","location_name":"P.S. 251 Paerdegat","nta":"BK58","nta_name":"Flatlands","category":"Elementary","fiscal_year":"2020"},"geometry":{"type":"Point","coordinates":[-73.923894,40.63195]}},{"type":"Feature","properties":{"location_code":"K253","location_name":"P.S. 253","nta":"BK19","nta_name":"Brighton Beach","category":"Elementary","fiscal_year":"2020"},"geometry":{"type":"Point","coordinates":[-73.961962,40.580237]}},{"type":"Feature","properties":{"location_code":"K254","location_name":"P.S. 254 Dag Hammarskjold","nta":"BK17","nta_name":"Sheepshead Bay-Gerritsen Beach-Manhattan Beach","category":"Elementary","fiscal_year":"2020"},"geometry":{"type":"Point","coordinates":[-73.95155,40.591103]}},{"type":"Feature","properties":{"location_code":"K255","location_name":"P.S. 255 Barbara Reing School","nta":"BK44","nta_name":"Madison","category":"Elementary","fiscal_year":"2020"},"geometry":{"type":"Point","coordinates":[-73.955891,40.604461]}},{"type":"Feature","properties":{"location_code":"K256","location_name":"P.S. 256 Benjamin Banneker","nta":"BK75","nta_name":"Bedford","category":"Elementary","fiscal_year":"2020"},"geometry":{"type":"Point","coordinates":[-73.94961,40.690595]}},{"type":"Feature","properties":{"location_code":"K257","location_name":"P.S. 257 John F. Hylan","nta":"BK90","nta_name":"East Williamsburg","category":"Elementary","fiscal_year":"2020"},"geometry":{"type":"Point","coordinates":[-73.941345,40.702759]}},{"type":"Feature","properties":{"location_code":"K259","location_name":"J.H.S. 259 William McKinley","nta":"BK30","nta_name":"Dyker Heights","category":"Junior High-Intermediate-Middle","fiscal_year":"2020"},"geometry":{"type":"Point","coordinates":[-74.014633,40.626089]}},{"type":"Feature","properties":{"location_code":"K261","location_name":"P.S. 261 Philip Livingston","nta":"BK38","nta_name":"DUMBO-Vinegar Hill-Downtown Brooklyn-Boerum Hill","category":"Elementary","fiscal_year":"2020"},"geometry":{"type":"Point","coordinates":[-73.988667,40.687218]}},{"type":"Feature","properties":{"location_code":"K262","location_name":"P.S. 262 El Hajj Malik El Shabazz Elementary Schoo","nta":"BK61","nta_name":"Crown Heights North","category":"Elementary","fiscal_year":"2020"},"geometry":{"type":"Point","coordinates":[-73.930132,40.682949]}},{"type":"Feature","properties":{"location_code":"K264","location_name":"P.S. 264 Bay Ridge Elementary School For The Arts","nta":"BK31","nta_name":"Bay Ridge","category":"Elementary","fiscal_year":"2020"},"geometry":{"type":"Point","coordinates":[-74.029444,40.621025]}},{"type":"Feature","properties":{"location_code":"K265","location_name":"Dr. Susan S. McKinney Secondary School of the Arts","nta":"BK68","nta_name":"Fort Greene","category":"Secondary School","fiscal_year":"2020"},"geometry":{"type":"Point","coordinates":[-73.976104,40.697177]}},{"type":"Feature","properties":{"location_code":"K266","location_name":"M.S. K266 - Park Place Community Middle School","nta":"BK37","nta_name":"Park Slope-Gowanus","category":"Junior High-Intermediate-Middle","fiscal_year":"2020"},"geometry":{"type":"Point","coordinates":[-73.976648,40.678809]}},{"type":"Feature","properties":{"location_code":"K267","location_name":"M.S. 267 Math, Science & Technology","nta":"BK35","nta_name":"Stuyvesant Heights","category":"Junior High-Intermediate-Middle","fiscal_year":"2020"},"geometry":{"type":"Point","coordinates":[-73.932066,40.68797]}},{"type":"Feature","properties":{"location_code":"K268","location_name":"P.S. 268 Emma Lazarus","nta":"BK96","nta_name":"Rugby-Remsen Village","category":"Elementary","fiscal_year":"2020"},"geometry":{"type":"Point","coordinates":[-73.92756,40.657421]}},{"type":"Feature","properties":{"location_code":"K270","location_name":"P.S. 270 Johann DeKalb","nta":"BK69","nta_name":"Clinton Hill","category":"Elementary","fiscal_year":"2020"},"geometry":{"type":"Point","coordinates":[-73.961134,40.691275]}},{"type":"Feature","properties":{"location_code":"K272","location_name":"P.S. 272 Curtis Estabrook","nta":"BK50","nta_name":"Canarsie","category":"Elementary","fiscal_year":"2020"},"geometry":{"type":"Point","coordinates":[-73.886373,40.635542]}},{"type":"Feature","properties":{"location_code":"K273","location_name":"P.S. 273 Wortman","nta":"BK82","nta_name":"East New York","category":"Elementary","fiscal_year":"2020"},"geometry":{"type":"Point","coordinates":[-73.879276,40.6585]}},{"type":"Feature","properties":{"location_code":"K274","location_name":"P.S. 274 Kosciusko","nta":"BK78","nta_name":"Bushwick South","category":"Elementary","fiscal_year":"2020"},"geometry":{"type":"Point","coordinates":[-73.92818,40.694179]}},{"type":"Feature","properties":{"location_code":"K276","location_name":"P.S. 276 Louis Marshall","nta":"BK50","nta_name":"Canarsie","category":"Elementary","fiscal_year":"2020"},"geometry":{"type":"Point","coordinates":[-73.908436,40.634005]}},{"type":"Feature","properties":{"location_code":"K277","location_name":"P.S. 277 Gerritsen Beach","nta":"BK99","nta_name":"park-cemetery-etc-Brooklyn","category":"Elementary","fiscal_year":"2020"},"geometry":{"type":"Point","coordinates":[-73.92785,40.595798]}},{"type":"Feature","properties":{"location_code":"K278","location_name":"J.H.S. 278 Marine Park","nta":"BK99","nta_name":"park-cemetery-etc-Brooklyn","category":"Junior High-Intermediate-Middle","fiscal_year":"2020"},"geometry":{"type":"Point","coordinates":[-73.938721,40.606745]}},{"type":"Feature","properties":{"location_code":"K279","location_name":"P.S. 279 Herman Schreiber","nta":"BK50","nta_name":"Canarsie","category":"Elementary","fiscal_year":"2020"},"geometry":{"type":"Point","coordinates":[-73.892797,40.644134]}},{"type":"Feature","properties":{"location_code":"K281","location_name":"I.S. 281 Joseph B Cavallaro","nta":"BK29","nta_name":"Bensonhurst East","category":"Junior High-Intermediate-Middle","fiscal_year":"2020"},"geometry":{"type":"Point","coordinates":[-73.993565,40.594648]}},{"type":"Feature","properties":{"location_code":"K282","location_name":"P.S. 282 Park Slope","nta":"BK37","nta_name":"Park Slope-Gowanus","category":"K-8","fiscal_year":"2020"},"geometry":{"type":"Point","coordinates":[-73.977983,40.676649]}},{"type":"Feature","properties":{"location_code":"K284","location_name":"The Gregory Jocko Jackson School of Sports, Art, a","nta":"BK81","nta_name":"Brownsville","category":"K-8","fiscal_year":"2020"},"geometry":{"type":"Point","coordinates":[-73.907634,40.666942]}},{"type":"Feature","properties":{"location_code":"K285","location_name":"I.S. 285 Meyer Levin","nta":"BK96","nta_name":"Rugby-Remsen Village","category":"Junior High-Intermediate-Middle","fiscal_year":"2020"},"geometry":{"type":"Point","coordinates":[-73.920784,40.647818]}},{"type":"Feature","properties":{"location_code":"K287","location_name":"P.S. 287 Bailey K. Ashford","nta":"BK38","nta_name":"DUMBO-Vinegar Hill-Downtown Brooklyn-Boerum Hill","category":"Elementary","fiscal_year":"2020"},"geometry":{"type":"Point","coordinates":[-73.98112,40.697856]}},{"type":"Feature","properties":{"location_code":"K288","location_name":"P.S. 288 The Shirley Tanyhill","nta":"BK21","nta_name":"Seagate-Coney Island","category":"K-8","fiscal_year":"2020"},"geometry":{"type":"Point","coordinates":[-73.992393,40.574029]}},{"type":"Feature","properties":{"location_code":"K289","location_name":"P.S. 289 George V. Brower","nta":"BK61","nta_name":"Crown Heights North","category":"Elementary","fiscal_year":"2020"},"geometry":{"type":"Point","coordinates":[-73.942401,40.674244]}},{"type":"Feature","properties":{"location_code":"K290","location_name":"P.S. 290 Juan Morel Campos","nta":"BK82","nta_name":"East New York","category":"Elementary","fiscal_year":"2020"},"geometry":{"type":"Point","coordinates":[-73.889375,40.678182]}},{"type":"Feature","properties":{"location_code":"K291","location_name":"J.H.S. 291 Roland Hayes","nta":"BK77","nta_name":"Bushwick North","category":"Junior High-Intermediate-Middle","fiscal_year":"2020"},"geometry":{"type":"Point","coordinates":[-73.915217,40.695875]}},{"type":"Feature","properties":{"location_code":"K292","location_name":"J.H.S. 292 Margaret S. Douglas","nta":"BK85","nta_name":"East New York (Pennsylvania Ave)","category":"Junior High-Intermediate-Middle","fiscal_year":"2020"},"geometry":{"type":"Point","coordinates":[-73.893319,40.671601]}},{"type":"Feature","properties":{"location_code":"K295","location_name":"P.S. 295","nta":"BK32","nta_name":"Sunset Park West","category":"Elementary","fiscal_year":"2020"},"geometry":{"type":"Point","coordinates":[-73.988743,40.660805]}},{"type":"Feature","properties":{"location_code":"K297","location_name":"P.S. 297 Abraham Stockton","nta":"BK75","nta_name":"Bedford","category":"Elementary","fiscal_year":"2020"},"geometry":{"type":"Point","coordinates":[-73.948166,40.697377]}},{"type":"Feature","properties":{"location_code":"K298","location_name":"P.S. 298 Dr. Betty Shabazz","nta":"BK81","nta_name":"Brownsville","category":"Elementary","fiscal_year":"2020"},"geometry":{"type":"Point","coordinates":[-73.907718,40.671015]}},{"type":"Feature","properties":{"location_code":"K299","location_name":"P.S. 299 Thomas Warren Field","nta":"BK78","nta_name":"Bushwick South","category":"Elementary","fiscal_year":"2020"},"geometry":{"type":"Point","coordinates":[-73.917899,40.690755]}},{"type":"Feature","properties":{"location_code":"K301","location_name":"Satellite East Middle School","nta":"BK61","nta_name":"Crown Heights North","category":"Junior High-Intermediate-Middle","fiscal_year":"2020"},"geometry":{"type":"Point","coordinates":[-73.946381,40.679079]}},{"type":"Feature","properties":{"location_code":"K303","location_name":"I.S. 303 Herbert S. Eisenberg","nta":"BK23","nta_name":"West Brighton","category":"Junior High-Intermediate-Middle","fiscal_year":"2020"},"geometry":{"type":"Point","coordinates":[-73.972009,40.582518]}},{"type":"Feature","properties":{"location_code":"K305","location_name":"P.S. 305 Dr. Peter Ray","nta":"BK75","nta_name":"Bedford","category":"Elementary","fiscal_year":"2020"},"geometry":{"type":"Point","coordinates":[-73.94573,40.685653]}},{"type":"Feature","properties":{"location_code":"K306","location_name":"P.S. 306 Ethan Allen","nta":"BK82","nta_name":"East New York","category":"Elementary","fiscal_year":"2020"},"geometry":{"type":"Point","coordinates":[-73.88662,40.65534]}},{"type":"Feature","properties":{"location_code":"K307","location_name":"P.S. 307 Daniel Hale Williams","nta":"BK38","nta_name":"DUMBO-Vinegar Hill-Downtown Brooklyn-Boerum Hill","category":"Elementary","fiscal_year":"2020"},"geometry":{"type":"Point","coordinates":[-73.981599,40.701789]}},{"type":"Feature","properties":{"location_code":"K308","location_name":"P.S. 308 Clara Cardwell","nta":"BK35","nta_name":"Stuyvesant Heights","category":"K-8","fiscal_year":"2020"},"geometry":{"type":"Point","coordinates":[-73.935509,40.688323]}},{"type":"Feature","properties":{"location_code":"K309","location_name":"P.S. 309 The George E. Wibecan Preparatory Academy","nta":"BK35","nta_name":"Stuyvesant Heights","category":"Elementary","fiscal_year":"2020"},"geometry":{"type":"Point","coordinates":[-73.924422,40.6881]}},{"type":"Feature","properties":{"location_code":"K310","location_name":"The School For Future Leaders","nta":"BK34","nta_name":"Sunset Park East","category":"Elementary","fiscal_year":"2020"},"geometry":{"type":"Point","coordinates":[-74.007533,40.632143]}},{"type":"Feature","properties":{"location_code":"K312","location_name":"P.S. 312 Bergen Beach","nta":"BK45","nta_name":"Georgetown-Marine Park-Bergen Beach-Mill Basin","category":"Elementary","fiscal_year":"2020"},"geometry":{"type":"Point","coordinates":[-73.909554,40.622442]}},{"type":"Feature","properties":{"location_code":"K313","location_name":"Dock Street School for STEAM Studies","nta":"BK38","nta_name":"DUMBO-Vinegar Hill-Downtown Brooklyn-Boerum Hill","category":"Junior High-Intermediate-Middle","fiscal_year":"2020"},"geometry":{"type":"Point","coordinates":[-73.992076,40.702952]}},{"type":"Feature","properties":{"location_code":"K315","location_name":"P.S. K315","nta":"BK42","nta_name":"Flatbush","category":"Elementary","fiscal_year":"2020"},"geometry":{"type":"Point","coordinates":[-73.954269,40.632619]}},{"type":"Feature","properties":{"location_code":"K316","location_name":"P.S. 316 Elijah Stroud","nta":"BK64","nta_name":"Prospect Heights","category":"Elementary","fiscal_year":"2020"},"geometry":{"type":"Point","coordinates":[-73.961418,40.674685]}},{"type":"Feature","properties":{"location_code":"K318","location_name":"I.S. 318 Eugenio Maria De Hostos","nta":"BK72","nta_name":"Williamsburg","category":"Junior High-Intermediate-Middle","fiscal_year":"2020"},"geometry":{"type":"Point","coordinates":[-73.948771,40.703034]}},{"type":"Feature","properties":{"location_code":"K319","location_name":"P.S. 319","nta":"BK73","nta_name":"North Side-South Side","category":"Early Childhood","fiscal_year":"2020"},"geometry":{"type":"Point","coordinates":[-73.953881,40.709632]}},{"type":"Feature","properties":{"location_code":"K321","location_name":"P.S. 321 William Penn","nta":"BK37","nta_name":"Park Slope-Gowanus","category":"Elementary","fiscal_year":"2020"},"geometry":{"type":"Point","coordinates":[-73.978633,40.671816]}},{"type":"Feature","properties":{"location_code":"K323","location_name":"P.S./I.S. 323","nta":"BK81","nta_name":"Brownsville","category":"K-8","fiscal_year":"2020"},"geometry":{"type":"Point","coordinates":[-73.911279,40.666187]}},{"type":"Feature","properties":{"location_code":"K325","location_name":"The Fresh Creek School","nta":"BK50","nta_name":"Canarsie","category":"Elementary","fiscal_year":"2020"},"geometry":{"type":"Point","coordinates":[-73.893294,40.653368]}},{"type":"Feature","properties":{"location_code":"K326","location_name":"P.S. 326","nta":"BK58","nta_name":"Flatlands","category":"Early Childhood","fiscal_year":"2020"},"geometry":{"type":"Point","coordinates":[-73.92825,40.628417]}},{"type":"Feature","properties":{"location_code":"K327","location_name":"P.S. 327 Dr. Rose B. English","nta":"BK81","nta_name":"Brownsville","category":"K-8","fiscal_year":"2020"},"geometry":{"type":"Point","coordinates":[-73.911788,40.668232]}},{"type":"Feature","properties":{"location_code":"K328","location_name":"P.S. 328 Phyllis Wheatley","nta":"BK85","nta_name":"East New York (Pennsylvania Ave)","category":"Elementary","fiscal_year":"2020"},"geometry":{"type":"Point","coordinates":[-73.898249,40.667985]}},{"type":"Feature","properties":{"location_code":"K329","location_name":"P.S. 329 Surfside","nta":"BK21","nta_name":"Seagate-Coney Island","category":"Elementary","fiscal_year":"2020"},"geometry":{"type":"Point","coordinates":[-73.99577,40.574666]}},{"type":"Feature","properties":{"location_code":"K333","location_name":"Explore Exceed Charter School","nta":"BK61","nta_name":"Crown Heights North","category":"K-8","fiscal_year":"2020"},"geometry":{"type":"Point","coordinates":[-73.960093,40.6771]}},{"type":"Feature","properties":{"location_code":"K335","location_name":"P.S. 335 Granville T. Woods","nta":"BK61","nta_name":"Crown Heights North","category":"Elementary","fiscal_year":"2020"},"geometry":{"type":"Point","coordinates":[-73.928673,40.674491]}},{"type":"Feature","properties":{"location_code":"K337","location_name":"International High School at Lafayette","nta":"BK26","nta_name":"Gravesend","category":"High school","fiscal_year":"2020"},"geometry":{"type":"Point","coordinates":[-73.986313,40.593028]}},{"type":"Feature","properties":{"location_code":"K340","location_name":"I.S. 340","nta":"BK64","nta_name":"Prospect Heights","category":"Junior High-Intermediate-Middle","fiscal_year":"2020"},"geometry":{"type":"Point","coordinates":[-73.970315,40.676357]}},{"type":"Feature","properties":{"location_code":"K344","location_name":"Rachel Carson High School for Coastal Studies","nta":"BK23","nta_name":"West Brighton","category":"High school","fiscal_year":"2020"},"geometry":{"type":"Point","coordinates":[-73.972009,40.582518]}},{"type":"Feature","properties":{"location_code":"K345","location_name":"P.S. 345 Patrolman Robert Bolden","nta":"BK82","nta_name":"East New York","category":"Elementary","fiscal_year":"2020"},"geometry":{"type":"Point","coordinates":[-73.879886,40.676207]}},{"type":"Feature","properties":{"location_code":"K346","location_name":"P.S. 346 Abe Stark","nta":"BK93","nta_name":"Starrett City","category":"Elementary","fiscal_year":"2020"},"geometry":{"type":"Point","coordinates":[-73.881997,40.64664]}},{"type":"Feature","properties":{"location_code":"K347","location_name":"I.S. 347 School of Humanities","nta":"BK78","nta_name":"Bushwick South","category":"Junior High-Intermediate-Middle","fiscal_year":"2020"},"geometry":{"type":"Point","coordinates":[-73.927938,40.70081]}},{"type":"Feature","properties":{"location_code":"K348","location_name":"High School of Sports Management","nta":"BK26","nta_name":"Gravesend","category":"High school","fiscal_year":"2020"},"geometry":{"type":"Point","coordinates":[-73.986313,40.593028]}},{"type":"Feature","properties":{"location_code":"K349","location_name":"I.S. 349 Math, Science & Tech.","nta":"BK78","nta_name":"Bushwick South","category":"Junior High-Intermediate-Middle","fiscal_year":"2020"},"geometry":{"type":"Point","coordinates":[-73.927938,40.70081]}},{"type":"Feature","properties":{"location_code":"K350","location_name":"Urban Assembly School of Music and Art","nta":"BK38","nta_name":"DUMBO-Vinegar Hill-Downtown Brooklyn-Boerum Hill","category":"High school","fiscal_year":"2020"},"geometry":{"type":"Point","coordinates":[-73.984528,40.69733]}},{"type":"Feature","properties":{"location_code":"K351","location_name":"The Urban Assembly Unison School","nta":"BK69","nta_name":"Clinton Hill","category":"Junior High-Intermediate-Middle","fiscal_year":"2020"},"geometry":{"type":"Point","coordinates":[-73.960536,40.684286]}},{"type":"Feature","properties":{"location_code":"K352","location_name":"Ebbets Field Middle School","nta":"BK63","nta_name":"Crown Heights South","category":"Junior High-Intermediate-Middle","fiscal_year":"2020"},"geometry":{"type":"Point","coordinates":[-73.959484,40.665199]}},{"type":"Feature","properties":{"location_code":"K353","location_name":"Elijah Stroud Middle School","nta":"BK64","nta_name":"Prospect Heights","category":"Junior High-Intermediate-Middle","fiscal_year":"2020"},"geometry":{"type":"Point","coordinates":[-73.961418,40.674685]}},{"type":"Feature","properties":{"location_code":"K354","location_name":"The School of Integrated Learning","nta":"BK61","nta_name":"Crown Heights North","category":"Junior High-Intermediate-Middle","fiscal_year":"2020"},"geometry":{"type":"Point","coordinates":[-73.937601,40.67229]}},{"type":"Feature","properties":{"location_code":"K355","location_name":"Williamsburg Collegiate Charter School","nta":"BK72","nta_name":"Williamsburg","category":"Junior High-Intermediate-Middle","fiscal_year":"2020"},"geometry":{"type":"Point","coordinates":[-73.962049,40.706069]}},{"type":"Feature","properties":{"location_code":"K356","location_name":"Achievement First Crown Heights Charter School","nta":"BK60","nta_name":"Prospect Lefferts Gardens-Wingate","category":"K-12 all grades","fiscal_year":"2020"},"geometry":{"type":"Point","coordinates":[-73.936313,40.662092]}},{"type":"Feature","properties":{"location_code":"K357","location_name":"KIPP AMP Charter School","nta":"BK61","nta_name":"Crown Heights North","category":"K-12 all grades","fiscal_year":"2020"},"geometry":{"type":"Point","coordinates":[-73.937601,40.67229]}},{"type":"Feature","properties":{"location_code":"K358","location_name":"Achievement First East New York Charter School","nta":"BK85","nta_name":"East New York (Pennsylvania Ave)","category":"K-12 all grades","fiscal_year":"2020"},"geometry":{"type":"Point","coordinates":[-73.893328,40.664067]}},{"type":"Feature","properties":{"location_code":"K359","location_name":"The Uft Charter School","nta":"BK82","nta_name":"East New York","category":"High school","fiscal_year":"2020"},"geometry":{"type":"Point","coordinates":[-73.885704,40.659934]}},{"type":"Feature","properties":{"location_code":"K360","location_name":"Launch Expeditionary Learning Charter School","nta":"BK61","nta_name":"Crown Heights North","category":"Junior High-Intermediate-Middle","fiscal_year":"2020"},"geometry":{"type":"Point","coordinates":[-73.935093,40.675675]}},{"type":"Feature","properties":{"location_code":"K361","location_name":"P.S. 361 East Flatbush Early Childhood School","nta":"BK42","nta_name":"Flatbush","category":"Elementary","fiscal_year":"2020"},"geometry":{"type":"Point","coordinates":[-73.947672,40.637625]}},{"type":"Feature","properties":{"location_code":"K362","location_name":"Hellenic Classical Charter School","nta":"BK37","nta_name":"Park Slope-Gowanus","category":"K-8","fiscal_year":"2020"},"geometry":{"type":"Point","coordinates":[-73.992254,40.662985]}},{"type":"Feature","properties":{"location_code":"K363","location_name":"Brownsville Collaborative Middle School","nta":"BK81","nta_name":"Brownsville","category":"Junior High-Intermediate-Middle","fiscal_year":"2020"},"geometry":{"type":"Point","coordinates":[-73.907718,40.671015]}},{"type":"Feature","properties":{"location_code":"K364","location_name":"I.S. 364 Gateway","nta":"BK93","nta_name":"Starrett City","category":"Junior High-Intermediate-Middle","fiscal_year":"2020"},"geometry":{"type":"Point","coordinates":[-73.881115,40.646211]}},{"type":"Feature","properties":{"location_code":"K366","location_name":"The Science And Medicine Middle School","nta":"BK50","nta_name":"Canarsie","category":"Junior High-Intermediate-Middle","fiscal_year":"2020"},"geometry":{"type":"Point","coordinates":[-73.891743,40.647396]}},{"type":"Feature","properties":{"location_code":"K367","location_name":"Success Academy Charter School - Bed-Stuy 1","nta":"BK75","nta_name":"Bedford","category":"K-8","fiscal_year":"2020"},"geometry":{"type":"Point","coordinates":[-73.947557,40.696698]}},{"type":"Feature","properties":{"location_code":"K368","location_name":"P.S. 368","nta":"BK75","nta_name":"Bedford","category":"K-12 all grades","fiscal_year":"2020"},"geometry":{"type":"Point","coordinates":[-73.947557,40.696698]}},{"type":"Feature","properties":{"location_code":"K369","location_name":"P.S. K369 - Coy L. Cox School","nta":"BK38","nta_name":"DUMBO-Vinegar Hill-Downtown Brooklyn-Boerum Hill","category":"K-12 all grades","fiscal_year":"2020"},"geometry":{"type":"Point","coordinates":[-73.983312,40.687432]}},{"type":"Feature","properties":{"location_code":"K370","location_name":"P.S. 370","nta":"BK23","nta_name":"West Brighton","category":"K-12 all grades","fiscal_year":"2020"},"geometry":{"type":"Point","coordinates":[-73.969872,40.577709]}},{"type":"Feature","properties":{"location_code":"K371","location_name":"P.S. 371 - Lillian L. Rashkis","nta":"BK32","nta_name":"Sunset Park West","category":"High school","fiscal_year":"2020"},"geometry":{"type":"Point","coordinates":[-74.005168,40.654306]}},{"type":"Feature","properties":{"location_code":"K372","location_name":"P.S. 372 -The Children's School","nta":"BK37","nta_name":"Park Slope-Gowanus","category":"K-8","fiscal_year":"2020"},"geometry":{"type":"Point","coordinates":[-73.9855,40.676198]}},{"type":"Feature","properties":{"location_code":"K373","location_name":"P.S. 373 - Brooklyn Transition Center","nta":"BK75","nta_name":"Bedford","category":"High school","fiscal_year":"2020"},"geometry":{"type":"Point","coordinates":[-73.945211,40.699214]}},{"type":"Feature","properties":{"location_code":"K375","location_name":"P.S. 375 Jackie Robinson School","nta":"BK63","nta_name":"Crown Heights South","category":"Elementary","fiscal_year":"2020"},"geometry":{"type":"Point","coordinates":[-73.959484,40.665199]}},{"type":"Feature","properties":{"location_code":"K376","location_name":"P.S. 376","nta":"BK77","nta_name":"Bushwick North","category":"Elementary","fiscal_year":"2020"},"geometry":{"type":"Point","coordinates":[-73.920187,40.69805]}},{"type":"Feature","properties":{"location_code":"K377","location_name":"P.S. 377 Alejandrina B. De Gautier","nta":"BK78","nta_name":"Bushwick South","category":"K-8","fiscal_year":"2020"},"geometry":{"type":"Point","coordinates":[-73.915159,40.693542]}},{"type":"Feature","properties":{"location_code":"K379","location_name":"Explore Excel Charter School","nta":"BK50","nta_name":"Canarsie","category":"K-8","fiscal_year":"2020"},"geometry":{"type":"Point","coordinates":[-73.90788,40.642684]}},{"type":"Feature","properties":{"location_code":"K380","location_name":"P.S. 380 John Wayne Elementary","nta":"BK75","nta_name":"Bedford","category":"Elementary","fiscal_year":"2020"},"geometry":{"type":"Point","coordinates":[-73.953702,40.70179]}},{"type":"Feature","properties":{"location_code":"K381","location_name":"I. S. 381","nta":"BK43","nta_name":"Midwood","category":"Junior High-Intermediate-Middle","fiscal_year":"2020"},"geometry":{"type":"Point","coordinates":[-73.946836,40.623788]}},{"type":"Feature","properties":{"location_code":"K382","location_name":"Academy for College Preparation and Career Explora","nta":"BK95","nta_name":"Erasmus","category":"Secondary School","fiscal_year":"2020"},"geometry":{"type":"Point","coordinates":[-73.957173,40.649602]}},{"type":"Feature","properties":{"location_code":"K383","location_name":"J.H.S. 383 Philippa Schuyler","nta":"BK77","nta_name":"Bushwick North","category":"Junior High-Intermediate-Middle","fiscal_year":"2020"},"geometry":{"type":"Point","coordinates":[-73.919088,40.697898]}},{"type":"Feature","properties":{"location_code":"K384","location_name":"P.S. /I.S. 384 Frances E. Carter","nta":"BK77","nta_name":"Bushwick North","category":"K-8","fiscal_year":"2020"},"geometry":{"type":"Point","coordinates":[-73.904695,40.689883]}},{"type":"Feature","properties":{"location_code":"K392","location_name":"I.S. 392","nta":"BK81","nta_name":"Brownsville","category":"Junior High-Intermediate-Middle","fiscal_year":"2020"},"geometry":{"type":"Point","coordinates":[-73.91788,40.665553]}},{"type":"Feature","properties":{"location_code":"K394","location_name":"M.S. K394","nta":"BK61","nta_name":"Crown Heights North","category":"K-8","fiscal_year":"2020"},"geometry":{"type":"Point","coordinates":[-73.928917,40.67271]}},{"type":"Feature","properties":{"location_code":"K395","location_name":"New Visions A.I.M. Charter High School I","nta":"BK81","nta_name":"Brownsville","category":"High school","fiscal_year":"2020"},"geometry":{"type":"Point","coordinates":[-73.923881,40.666251]}},{"type":"Feature","properties":{"location_code":"K396","location_name":"P.S. K396","nta":"BK81","nta_name":"Brownsville","category":"K-8","fiscal_year":"2020"},"geometry":{"type":"Point","coordinates":[-73.911788,40.668232]}},{"type":"Feature","properties":{"location_code":"K397","location_name":"P.S. 397 Foster-Laurie","nta":"BK60","nta_name":"Prospect Lefferts Gardens-Wingate","category":"Elementary","fiscal_year":"2020"},"geometry":{"type":"Point","coordinates":[-73.946358,40.658663]}},{"type":"Feature","properties":{"location_code":"K398","location_name":"P.S. 398 Walter Weaver","nta":"BK96","nta_name":"Rugby-Remsen Village","category":"Elementary","fiscal_year":"2020"},"geometry":{"type":"Point","coordinates":[-73.927979,40.663388]}},{"type":"Feature","properties":{"location_code":"K399","location_name":"P.S. 399 Stanley Eugene Clark","nta":"BK95","nta_name":"Erasmus","category":"Elementary","fiscal_year":"2020"},"geometry":{"type":"Point","coordinates":[-73.951664,40.648277]}},{"type":"Feature","properties":{"location_code":"K401","location_name":"Christopher Avenue Community School","nta":"BK81","nta_name":"Brownsville","category":"Elementary","fiscal_year":"2020"},"geometry":{"type":"Point","coordinates":[-73.906018,40.672216]}},{"type":"Feature","properties":{"location_code":"K403","location_name":"Academy for Excellence in Leadership","nta":"BK77","nta_name":"Bushwick North","category":"High school","fiscal_year":"2020"},"geometry":{"type":"Point","coordinates":[-73.911751,40.696457]}},{"type":"Feature","properties":{"location_code":"K404","location_name":"Academy for Young Writers","nta":"BK82","nta_name":"East New York","category":"Secondary School","fiscal_year":"2020"},"geometry":{"type":"Point","coordinates":[-73.874064,40.657266]}},{"type":"Feature","properties":{"location_code":"K405","location_name":"Midwood High School","nta":"BK42","nta_name":"Flatbush","category":"High school","fiscal_year":"2020"},"geometry":{"type":"Point","coordinates":[-73.952356,40.632829]}},{"type":"Feature","properties":{"location_code":"K406","location_name":"EMBER Charter School for Mindful Education, Innova","nta":"BK35","nta_name":"Stuyvesant Heights","category":"K-8","fiscal_year":"2020"},"geometry":{"type":"Point","coordinates":[-73.935509,40.688323]}},{"type":"Feature","properties":{"location_code":"K408","location_name":"Academy of Hospitality and Tourism","nta":"BK95","nta_name":"Erasmus","category":"High school","fiscal_year":"2020"},"geometry":{"type":"Point","coordinates":[-73.957173,40.649602]}},{"type":"Feature","properties":{"location_code":"K409","location_name":"East New York Family Academy","nta":"BK85","nta_name":"East New York (Pennsylvania Ave)","category":"Secondary School","fiscal_year":"2020"},"geometry":{"type":"Point","coordinates":[-73.895976,40.673766]}},{"type":"Feature","properties":{"location_code":"K410","location_name":"Abraham Lincoln High School","nta":"BK23","nta_name":"West Brighton","category":"High school","fiscal_year":"2020"},"geometry":{"type":"Point","coordinates":[-73.968733,40.582627]}},{"type":"Feature","properties":{"location_code":"K412","location_name":"Brooklyn Community Arts & Media High School (BCAM)","nta":"BK69","nta_name":"Clinton Hill","category":"High school","fiscal_year":"2020"},"geometry":{"type":"Point","coordinates":[-73.95818,40.692015]}},{"type":"Feature","properties":{"location_code":"K414","location_name":"Brooklyn Arbor Elementary School","nta":"BK73","nta_name":"North Side-South Side","category":"Elementary","fiscal_year":"2020"},"geometry":{"type":"Point","coordinates":[-73.954678,40.710107]}},{"type":"Feature","properties":{"location_code":"K417","location_name":"Urban Dove Charter School","nta":"BK75","nta_name":"Bedford","category":"High school","fiscal_year":"2020"},"geometry":{"type":"Point","coordinates":[-73.950714,40.689574]}},{"type":"Feature","properties":{"location_code":"K419","location_name":"Science Skills Center High School for Science, Tec","nta":"BK38","nta_name":"DUMBO-Vinegar Hill-Downtown Brooklyn-Boerum Hill","category":"High school","fiscal_year":"2020"},"geometry":{"type":"Point","coordinates":[-73.984528,40.69733]}},{"type":"Feature","properties":{"location_code":"K422","location_name":"Spring Creek Community School","nta":"BK82","nta_name":"East New York","category":"Secondary School","fiscal_year":"2020"},"geometry":{"type":"Point","coordinates":[-73.874064,40.657266]}},{"type":"Feature","properties":{"location_code":"K423","location_name":"Brooklyn Frontiers High School","nta":"BK38","nta_name":"DUMBO-Vinegar Hill-Downtown Brooklyn-Boerum Hill","category":"High school","fiscal_year":"2020"},"geometry":{"type":"Point","coordinates":[-73.989369,40.690007]}},{"type":"Feature","properties":{"location_code":"K425","location_name":"James Madison High School","nta":"BK44","nta_name":"Madison","category":"High school","fiscal_year":"2020"},"geometry":{"type":"Point","coordinates":[-73.947661,40.610499]}},{"type":"Feature","properties":{"location_code":"K429","location_name":"Digital Arts and Cinema Technology High School","nta":"BK38","nta_name":"DUMBO-Vinegar Hill-Downtown Brooklyn-Boerum Hill","category":"Secondary School","fiscal_year":"2020"},"geometry":{"type":"Point","coordinates":[-73.993293,40.685006]}},{"type":"Feature","properties":{"location_code":"K430","location_name":"Brooklyn Technical High School","nta":"BK68","nta_name":"Fort Greene","category":"High school","fiscal_year":"2020"},"geometry":{"type":"Point","coordinates":[-73.976435,40.688896]}},{"type":"Feature","properties":{"location_code":"K439","location_name":"Brooklyn International High School","nta":"BK38","nta_name":"DUMBO-Vinegar Hill-Downtown Brooklyn-Boerum Hill","category":"High school","fiscal_year":"2020"},"geometry":{"type":"Point","coordinates":[-73.984528,40.69733]}},{"type":"Feature","properties":{"location_code":"K442","location_name":"M.S. 442 Carroll Gardens School for Innovation","nta":"BK40","nta_name":"Windsor Terrace","category":"Junior High-Intermediate-Middle","fiscal_year":"2020"},"geometry":{"type":"Point","coordinates":[-73.983116,40.656952]}},{"type":"Feature","properties":{"location_code":"K443","location_name":"New Voices School of Academic & Creative Arts","nta":"BK32","nta_name":"Sunset Park West","category":"Junior High-Intermediate-Middle","fiscal_year":"2020"},"geometry":{"type":"Point","coordinates":[-73.988743,40.660805]}},{"type":"Feature","properties":{"location_code":"K445","location_name":"New Utrecht High School","nta":"BK28","nta_name":"Bensonhurst West","category":"High school","fiscal_year":"2020"},"geometry":{"type":"Point","coordinates":[-74.002308,40.613041]}},{"type":"Feature","properties":{"location_code":"K446","location_name":"Riverdale Avenue Community School","nta":"BK81","nta_name":"Brownsville","category":"Elementary","fiscal_year":"2020"},"geometry":{"type":"Point","coordinates":[-73.913508,40.659618]}},{"type":"Feature","properties":{"location_code":"K447","location_name":"The Math & Science Exploratory School","nta":"BK38","nta_name":"DUMBO-Vinegar Hill-Downtown Brooklyn-Boerum Hill","category":"Junior High-Intermediate-Middle","fiscal_year":"2020"},"geometry":{"type":"Point","coordinates":[-73.980266,40.683951]}},{"type":"Feature","properties":{"location_code":"K448","location_name":"Brooklyn Collaborative Studies","nta":"BK33","nta_name":"Carroll Gardens-Columbia Street-Red Hook","category":"Secondary School","fiscal_year":"2020"},"geometry":{"type":"Point","coordinates":[-74.002022,40.679462]}},{"type":"Feature","properties":{"location_code":"K449","location_name":"Brooklyn Latin School, The","nta":"BK90","nta_name":"East Williamsburg","category":"High school","fiscal_year":"2020"},"geometry":{"type":"Point","coordinates":[-73.944463,40.709765]}},{"type":"Feature","properties":{"location_code":"K452","location_name":"Frederick Douglass Academy VIII Middle School","nta":"BK93","nta_name":"Starrett City","category":"Junior High-Intermediate-Middle","fiscal_year":"2020"},"geometry":{"type":"Point","coordinates":[-73.881997,40.64664]}},{"type":"Feature","properties":{"location_code":"K454","location_name":"The Williamsburg High School of Art and Technology","nta":"BK90","nta_name":"East Williamsburg","category":"High school","fiscal_year":"2020"},"geometry":{"type":"Point","coordinates":[-73.944463,40.709765]}},{"type":"Feature","properties":{"location_code":"K455","location_name":"Boys and Girls High School","nta":"BK61","nta_name":"Crown Heights North","category":"High school","fiscal_year":"2020"},"geometry":{"type":"Point","coordinates":[-73.931604,40.678478]}},{"type":"Feature","properties":{"location_code":"K462","location_name":"John Jay School for Law","nta":"BK37","nta_name":"Park Slope-Gowanus","category":"High school","fiscal_year":"2020"},"geometry":{"type":"Point","coordinates":[-73.97858,40.669255]}},{"type":"Feature","properties":{"location_code":"K463","location_name":"Cyberarts Studio Academy","nta":"BK37","nta_name":"Park Slope-Gowanus","category":"High school","fiscal_year":"2020"},"geometry":{"type":"Point","coordinates":[-73.97858,40.669255]}},{"type":"Feature","properties":{"location_code":"K464","location_name":"Park Slope Collegiate","nta":"BK37","nta_name":"Park Slope-Gowanus","category":"Secondary School","fiscal_year":"2020"},"geometry":{"type":"Point","coordinates":[-73.97858,40.669255]}},{"type":"Feature","properties":{"location_code":"K468","location_name":"Kingsborough Early College School","nta":"BK26","nta_name":"Gravesend","category":"Secondary School","fiscal_year":"2020"},"geometry":{"type":"Point","coordinates":[-73.986313,40.593028]}},{"type":"Feature","properties":{"location_code":"K473","location_name":"Williamsburg Charter High School","nta":"BK78","nta_name":"Bushwick South","category":"High school","fiscal_year":"2020"},"geometry":{"type":"Point","coordinates":[-73.935969,40.703703]}},{"type":"Feature","properties":{"location_code":"K474","location_name":"PROGRESS High School for Professional Careers","nta":"BK78","nta_name":"Bushwick South","category":"High school","fiscal_year":"2020"},"geometry":{"type":"Point","coordinates":[-73.938921,40.711134]}},{"type":"Feature","properties":{"location_code":"K477","location_name":"East Williamsburg Scholars Academy","nta":"BK78","nta_name":"Bushwick South","category":"High school","fiscal_year":"2020"},"geometry":{"type":"Point","coordinates":[-73.938921,40.711134]}},{"type":"Feature","properties":{"location_code":"K478","location_name":"The High School for Enterprise, Business and Techn","nta":"BK78","nta_name":"Bushwick South","category":"High school","fiscal_year":"2020"},"geometry":{"type":"Point","coordinates":[-73.938921,40.711134]}},{"type":"Feature","properties":{"location_code":"K483","location_name":"The Urban Assembly School for Law and Justice","nta":"BK38","nta_name":"DUMBO-Vinegar Hill-Downtown Brooklyn-Boerum Hill","category":"High school","fiscal_year":"2020"},"geometry":{"type":"Point","coordinates":[-73.988323,40.694629]}},{"type":"Feature","properties":{"location_code":"K484","location_name":"Ronald Edmonds Learning Center II","nta":"BK79","nta_name":"Ocean Hill","category":"Junior High-Intermediate-Middle","fiscal_year":"2020"},"geometry":{"type":"Point","coordinates":[-73.920095,40.673124]}},{"type":"Feature","properties":{"location_code":"K485","location_name":"High School of Telecommunication Arts and Technolo","nta":"BK31","nta_name":"Bay Ridge","category":"High school","fiscal_year":"2020"},"geometry":{"type":"Point","coordinates":[-74.023419,40.636721]}},{"type":"Feature","properties":{"location_code":"K486","location_name":"New Dawn Charter High School","nta":"BK75","nta_name":"Bedford","category":"High school","fiscal_year":"2020"},"geometry":{"type":"Point","coordinates":[-73.946093,40.691606]}},{"type":"Feature","properties":{"location_code":"K488","location_name":"Brooklyn Preparatory High School","nta":"BK73","nta_name":"North Side-South Side","category":"High school","fiscal_year":"2020"},"geometry":{"type":"Point","coordinates":[-73.954815,40.715561]}},{"type":"Feature","properties":{"location_code":"K490","location_name":"Fort Hamilton High School","nta":"BK31","nta_name":"Bay Ridge","category":"High school","fiscal_year":"2020"},"geometry":{"type":"Point","coordinates":[-74.038103,40.626827]}},{"type":"Feature","properties":{"location_code":"K492","location_name":"Academy of Arts and Letters","nta":"BK68","nta_name":"Fort Greene","category":"K-8","fiscal_year":"2020"},"geometry":{"type":"Point","coordinates":[-73.970896,40.690742]}},{"type":"Feature","properties":{"location_code":"K493","location_name":"Brooklyn Collegiate: A College Board School","nta":"BK79","nta_name":"Ocean Hill","category":"High school","fiscal_year":"2020"},"geometry":{"type":"Point","coordinates":[-73.912685,40.674456]}},{"type":"Feature","properties":{"location_code":"K497","location_name":"The Boerum Hill School for International Studies","nta":"BK38","nta_name":"DUMBO-Vinegar Hill-Downtown Brooklyn-Boerum Hill","category":"Secondary School","fiscal_year":"2020"},"geometry":{"type":"Point","coordinates":[-73.993293,40.685006]}},{"type":"Feature","properties":{"location_code":"K498","location_name":"Brooklyn High School for Law and Technology","nta":"BK35","nta_name":"Stuyvesant Heights","category":"High school","fiscal_year":"2020"},"geometry":{"type":"Point","coordinates":[-73.920603,40.688399]}},{"type":"Feature","properties":{"location_code":"K499","location_name":"ACORN Community High School","nta":"BK61","nta_name":"Crown Heights North","category":"High school","fiscal_year":"2020"},"geometry":{"type":"Point","coordinates":[-73.961636,40.678591]}},{"type":"Feature","properties":{"location_code":"K502","location_name":"FDNY - Captain Vernon A. Richard High School for F","nta":"BK85","nta_name":"East New York (Pennsylvania Ave)","category":"High school","fiscal_year":"2020"},"geometry":{"type":"Point","coordinates":[-73.895122,40.666868]}},{"type":"Feature","properties":{"location_code":"K503","location_name":"P.S. 503: The School of Discovery","nta":"BK32","nta_name":"Sunset Park West","category":"Elementary","fiscal_year":"2020"},"geometry":{"type":"Point","coordinates":[-74.019299,40.64195]}},{"type":"Feature","properties":{"location_code":"K504","location_name":"High School for Civil Rights","nta":"BK85","nta_name":"East New York (Pennsylvania Ave)","category":"High school","fiscal_year":"2020"},"geometry":{"type":"Point","coordinates":[-73.895122,40.666868]}},{"type":"Feature","properties":{"location_code":"K505","location_name":"Franklin Delano Roosevelt High School","nta":"BK88","nta_name":"Borough Park","category":"High school","fiscal_year":"2020"},"geometry":{"type":"Point","coordinates":[-73.982583,40.621299]}},{"type":"Feature","properties":{"location_code":"K506","location_name":"P.S. 506: The School of Journalism & Technology","nta":"BK32","nta_name":"Sunset Park West","category":"Elementary","fiscal_year":"2020"},"geometry":{"type":"Point","coordinates":[-74.019299,40.64195]}},{"type":"Feature","properties":{"location_code":"K507","location_name":"Performing Arts and Technology High School","nta":"BK85","nta_name":"East New York (Pennsylvania Ave)","category":"High school","fiscal_year":"2020"},"geometry":{"type":"Point","coordinates":[-73.895122,40.666868]}},{"type":"Feature","properties":{"location_code":"K508","location_name":"Achievement First Endeavor Charter School","nta":"BK69","nta_name":"Clinton Hill","category":"K-12 all grades","fiscal_year":"2020"},"geometry":{"type":"Point","coordinates":[-73.965928,40.682422]}},{"type":"Feature","properties":{"location_code":"K510","location_name":"World Academy for Total Community Health High Scho","nta":"BK85","nta_name":"East New York (Pennsylvania Ave)","category":"High school","fiscal_year":"2020"},"geometry":{"type":"Point","coordinates":[-73.895122,40.666868]}},{"type":"Feature","properties":{"location_code":"K514","location_name":"Frederick Douglass Academy VII High School","nta":"BK81","nta_name":"Brownsville","category":"High school","fiscal_year":"2020"},"geometry":{"type":"Point","coordinates":[-73.912102,40.665568]}},{"type":"Feature","properties":{"location_code":"K516","location_name":"Sunset Park Avenues Elementary School","nta":"BK32","nta_name":"Sunset Park West","category":"Elementary","fiscal_year":"2020"},"geometry":{"type":"Point","coordinates":[-74.008106,40.650793]}},{"type":"Feature","properties":{"location_code":"K517","location_name":"Leadership Prep Bedford Stuyvesant Uncommon Prep C","nta":"BK75","nta_name":"Bedford","category":"K-12 all grades","fiscal_year":"2020"},"geometry":{"type":"Point","coordinates":[-73.9456,40.68192]}},{"type":"Feature","properties":{"location_code":"K518","location_name":"Kappa V (Knowledge and Power Preparatory Academy)","nta":"BK81","nta_name":"Brownsville","category":"Junior High-Intermediate-Middle","fiscal_year":"2020"},"geometry":{"type":"Point","coordinates":[-73.906662,40.655644]}},{"type":"Feature","properties":{"location_code":"K519","location_name":"Cobble Hill School of American Studies","nta":"BK38","nta_name":"DUMBO-Vinegar Hill-Downtown Brooklyn-Boerum Hill","category":"High school","fiscal_year":"2020"},"geometry":{"type":"Point","coordinates":[-73.990884,40.684869]}},{"type":"Feature","properties":{"location_code":"K522","location_name":"Mott Hall IV","nta":"BK79","nta_name":"Ocean Hill","category":"Junior High-Intermediate-Middle","fiscal_year":"2020"},"geometry":{"type":"Point","coordinates":[-73.915106,40.678124]}},{"type":"Feature","properties":{"location_code":"K524","location_name":"International High School at Prospect Heights","nta":"BK63","nta_name":"Crown Heights South","category":"High school","fiscal_year":"2020"},"geometry":{"type":"Point","coordinates":[-73.960689,40.669805]}},{"type":"Feature","properties":{"location_code":"K525","location_name":"Edward R. Murrow High School","nta":"BK43","nta_name":"Midwood","category":"High school","fiscal_year":"2020"},"geometry":{"type":"Point","coordinates":[-73.959141,40.619671]}},{"type":"Feature","properties":{"location_code":"K527","location_name":"Urban Assembly Institute of Math and Science for Y","nta":"BK38","nta_name":"DUMBO-Vinegar Hill-Downtown Brooklyn-Boerum Hill","category":"Secondary School","fiscal_year":"2020"},"geometry":{"type":"Point","coordinates":[-73.988323,40.694629]}},{"type":"Feature","properties":{"location_code":"K528","location_name":"The High School for Global Citizenship","nta":"BK63","nta_name":"Crown Heights South","category":"High school","fiscal_year":"2020"},"geometry":{"type":"Point","coordinates":[-73.960689,40.669805]}},{"type":"Feature","properties":{"location_code":"K529","location_name":"West Brooklyn Community High School","nta":"BK34","nta_name":"Sunset Park East","category":"High school","fiscal_year":"2020"},"geometry":{"type":"Point","coordinates":[-73.992151,40.642619]}},{"type":"Feature","properties":{"location_code":"K531","location_name":"School for Human Rights, The","nta":"BK60","nta_name":"Prospect Lefferts Gardens-Wingate","category":"Secondary School","fiscal_year":"2020"},"geometry":{"type":"Point","coordinates":[-73.943839,40.658671]}},{"type":"Feature","properties":{"location_code":"K532","location_name":"New Bridges Elementary","nta":"BK61","nta_name":"Crown Heights North","category":"Elementary","fiscal_year":"2020"},"geometry":{"type":"Point","coordinates":[-73.934316,40.669557]}},